{"stops":[{"stopId":31401,"stopCode":"02","stopName":"Astronautów","stopShortName":"1401","stopDesc":"Chwaszczyno","subName":"1401","date":"2017-04-24","stopLat":54.4426,"stopLon":18.41754,"zoneId":1,"zoneName":"Gdańsk","stopUrl":"","locationType":null,"parentStation":null,"stopTimezone":"","wheelchairBoarding":null,"virtual":0,"nonpassenger":0,"depot":0,"ticketZoneBorder":0,"onDemand":0,"activationDate":"2017-04-21"},{"stopId":31402,"stopCode":"01","stopName":"Szybowcowa","stopShortName":"1402","stopDesc":"Chwaszczyno - Lisia","subName":"1402","date":"2017-04-24","stopLat":54.43512,"stopLon":18.40282,"zoneId":1,"zoneName":"Gdańsk","stopUrl":"","locationType":null,"parentStation":null,"stopTimezone":"","wheelchairBoarding":null,"virtual":0,"nonpassenger":0,"depot":0,"ticketZoneBorder":0,"onDemand":0,"activationDate":"2017-04-21"},{"stopId":31403,"stopCode":"02","stopName":"Szybowcowa","stopShortName":"1403","stopDesc":"Tuchom - Ogrodowa","subName":"1403","date":"2017-04-24","stopLat":54.42798,"stopLon":18.38818,"zoneId":1,"zoneName":"Gdańsk","stopUrl":"","locationType":null,"parentStation":null,"stopTimezone":"","wheelchairBoarding":null,"virtual":0,"nonpassenger":0,"depot":0,"ticketZoneBorder":0,"onDemand":0,"activationDate":"2017-04-21"},{"stopId":31408,"stopCode":"01","stopName":"Ikara","stopShortName":"1408","stopDesc":"Żukowo - Fenikowskiego","subName":"1408","date":"2017-04-24","stopLat":54.34996,"stopLon":18.36658,"zoneId":1,"zoneName":"Gdańsk","stopUrl":"","locationType":null,"parentStation":null,"stopTimezone":"","wheelchairBoarding":null,"virtual":0,"nonpassenger":0,"depot":0,"ticketZoneBorder":0,"onDemand":0,"activationDate":"2017-04-21"},{"stopId":31409,"stopCode":"02","stopName":"Radiowa","stopShortName":"1409","stopDesc":"Żukowo - Dworcowa","subName":"1409","date":"2017-04-24","stopLat":54.34689,"stopLon":18.36515,"zoneId":1,"zoneName":"Gdańsk","stopUrl":"","locationType":null,"parentStation":null,"stopTimezone":"","wheelchairBoarding":null,"virtual":0,"nonpassenger":0,"depot":0,"ticketZoneBorder":0,"onDemand":1,"activationDate":"2017-04-21"},{"stopId":31404,"stopCode":"01","stopName":"Firoga","stopShortName":"1404","stopDesc":"Tuchom - Warzenko","subName":"1404","date":"2017-04-24","stopLat":54.41649,"stopLon":18.37565,"zoneId":1,"zoneName":"Gdańsk","stopUrl":"","locationType":null,"parentStation":null,"stopTimezone":"","wheelchairBoarding":null,"virtual":0,"nonpassenger":0,"depot":0,"ticketZoneBorder":0,"onDemand":1,"activationDate":"2017-04-21"},{"stopId":31405,"stopCode":null,"stopName":null,"stopShortName":"1405","stopDesc":"Miszewko","subName":"1405","date":"2017-04-24","stopLat":54.40245,"stopLon":18.3614,"zoneId":null,"zoneName":null,"stopUrl":"","locationType":null,"parentStation":null,"stopTimezone":"","wheelchairBoarding":null,"virtual":null,"nonpassenger":null,"depot":null,"ticketZoneBorder":null,"onDemand":null,"activationDate":"2017-04-21"},{"stopId":31406,"stopCode":"01","stopName":"BCB Azymutalna","stopShortName":"1406","stopDesc":"Miszewo","subName":"1406","date":"2017-04-24","stopLat":54.38846,"stopLon":18.35993,"zoneId":1,"zoneName":"Gdańsk","stopUrl":"","locationType":null,"parentStation":null,"stopTimezone":"","wheelchairBoarding":null,"virtual":0,"nonpassenger":0,"depot":0,"ticketZoneBorder":0,"onDemand":0,"activationDate":"2017-04-21"},{"stopId":31407,"stopCode":"01","stopName":"Radarowa","stopShortName":"1407","stopDesc":"Małkowo","subName":"1407","date":"2017-04-24","stopLat":54.37001,"stopLon":18.3633,"zoneId":1,"zoneName":"Gdańsk","stopUrl":"","locationType":null,"parentStation":null,"stopTimezone":"","wheelchairBoarding":null,"virtual":0,"nonpassenger":0,"depot":0,"ticketZoneBorder":0,"onDemand":0,"activationDate":"2017-04-21"},{"stopId":31411,"stopCode":"03","stopName":"Agrarna","stopShortName":"1411","stopDesc":"Żukowo - Urząd Gminy","subName":"1411","date":"2017-04-24","stopLat":54.34214,"stopLon":18.3578,"zoneId":1,"zoneName":"Gdańsk","stopUrl":"","locationType":null,"parentStation":null,"stopTimezone":"","wheelchairBoarding":null,"virtual":0,"nonpassenger":0,"depot":0,"ticketZoneBorder":0,"onDemand":0,"activationDate":"2017-04-21"},{"stopId":31412,"stopCode":"01","stopName":"Matarnia PKM","stopShortName":"1412","stopDesc":"Żukowo - Dworcowa","subName":"1412","date":"2017-04-24","stopLat":54.3489,"stopLon":18.3687,"zoneId":1,"zoneName":"Gdańsk","stopUrl":"","locationType":null,"parentStation":null,"stopTimezone":"","wheelchairBoarding":null,"virtual":0,"nonpassenger":0,"depot":0,"ticketZoneBorder":0,"onDemand":0,"activationDate":"2017-04-21"},{"stopId":31413,"stopCode":"04","stopName":"Nowatorów","stopShortName":"1413","stopDesc":"Żukowo - Dworcowa","subName":"1413","date":"2017-04-24","stopLat":54.34868,"stopLon":18.36713,"zoneId":1,"zoneName":"Gdańsk","stopUrl":"","locationType":null,"parentStation":null,"stopTimezone":"","wheelchairBoarding":null,"virtual":0,"nonpassenger":0,"depot":0,"ticketZoneBorder":0,"onDemand":0,"activationDate":"2017-04-21"},{"stopId":31414,"stopCode":"01","stopName":"Nowatorów","stopShortName":"1414","stopDesc":"Małkowo","subName":"1414","date":"2017-04-24","stopLat":54.37085,"stopLon":18.36306,"zoneId":1,"zoneName":"Gdańsk","stopUrl":"","locationType":null,"parentStation":null,"stopTimezone":"","wheelchairBoarding":null,"virtual":0,"nonpassenger":0,"depot":0,"ticketZoneBorder":0,"onDemand":0,"activationDate":"2017-04-21"},{"stopId":31410,"stopCode":"02","stopName":"Spadochroniarzy","stopShortName":"1410","stopDesc":"Żukowo - Urząd Gminy","subName":"1410","date":"2017-04-24","stopLat":54.34153,"stopLon":18.35512,"zoneId":1,"zoneName":"Gdańsk","stopUrl":"","locationType":null,"parentStation":null,"stopTimezone":"","wheelchairBoarding":null,"virtual":0,"nonpassenger":0,"depot":0,"ticketZoneBorder":0,"onDemand":0,"activationDate":"2017-04-21"},{"stopId":31419,"stopCode":"04","stopName":"Budowlanych","stopShortName":"1419","stopDesc":"Chwaszczyno - Lisia","subName":"1419","date":"2017-04-24","stopLat":54.43601,"stopLon":18.40539,"zoneId":1,"zoneName":"Gdańsk","stopUrl":"","locationType":null,"parentStation":null,"stopTimezone":"","wheelchairBoarding":null,"virtual":0,"nonpassenger":0,"depot":0,"ticketZoneBorder":0,"onDemand":1,"activationDate":"2017-04-21"},{"stopId":31415,"stopCode":"02","stopName":"Rakietowa","stopShortName":"1415","stopDesc":"Miszewo","subName":"1415","date":"2017-04-24","stopLat":54.38953,"stopLon":18.35963,"zoneId":1,"zoneName":"Gdańsk","stopUrl":"","locationType":null,"parentStation":null,"stopTimezone":"","wheelchairBoarding":null,"virtual":0,"nonpassenger":0,"depot":0,"ticketZoneBorder":0,"onDemand":1,"activationDate":"2017-04-21"},{"stopId":31416,"stopCode":"01","stopName":"Rakietowa","stopShortName":"1416","stopDesc":"Miszewko","subName":"1416","date":"2017-04-24","stopLat":54.40303,"stopLon":18.36243,"zoneId":1,"zoneName":"Gdańsk","stopUrl":"","locationType":null,"parentStation":null,"stopTimezone":"","wheelchairBoarding":null,"virtual":0,"nonpassenger":0,"depot":0,"ticketZoneBorder":0,"onDemand":1,"activationDate":"2017-04-21"},{"stopId":31417,"stopCode":"02","stopName":"Kosmonautów","stopShortName":"1417","stopDesc":"Tuchom - Warzenko","subName":"1417","date":"2017-04-24","stopLat":54.41749,"stopLon":18.37707,"zoneId":1,"zoneName":"Gdańsk","stopUrl":"","locationType":null,"parentStation":null,"stopTimezone":"","wheelchairBoarding":null,"virtual":0,"nonpassenger":0,"depot":0,"ticketZoneBorder":0,"onDemand":1,"activationDate":"2017-04-21"},{"stopId":31418,"stopCode":"01","stopName":"Kosmonautów","stopShortName":"1418","stopDesc":"Tuchom - Ogrodowa","subName":"1418","date":"2017-04-24","stopLat":54.4287,"stopLon":18.38946,"zoneId":1,"zoneName":"Gdańsk","stopUrl":"","locationType":null,"parentStation":null,"stopTimezone":"","wheelchairBoarding":null,"virtual":0,"nonpassenger":0,"depot":0,"ticketZoneBorder":0,"onDemand":1,"activationDate":"2017-04-21"},{"stopId":31444,"stopCode":"01","stopName":"Ciołkowskiego","stopShortName":"1444","stopDesc":"Borkowo - Jezioro","subName":"1444","date":"2017-04-24","stopLat":54.32314,"stopLon":18.31244,"zoneId":1,"zoneName":"Gdańsk","stopUrl":"","locationType":null,"parentStation":null,"stopTimezone":"","wheelchairBoarding":null,"virtual":0,"nonpassenger":0,"depot":0,"ticketZoneBorder":0,"onDemand":0,"activationDate":"2017-04-21"},{"stopId":30113,"stopCode":"02","stopName":"Wrzeszcz PKP","stopShortName":"113","stopDesc":"Wiczlino Niemotowo","subName":"113","date":"2017-04-24","stopLat":54.50633,"stopLon":18.40498,"zoneId":1,"zoneName":"Gdańsk","stopUrl":"","locationType":null,"parentStation":null,"stopTimezone":"","wheelchairBoarding":null,"virtual":0,"nonpassenger":0,"depot":0,"ticketZoneBorder":0,"onDemand":0,"activationDate":"2017-04-21"},{"stopId":31445,"stopCode":"01","stopName":"Drzewieckiego","stopShortName":"1445","stopDesc":"Żukowo - Słoneczna","subName":"1445","date":"2017-04-24","stopLat":54.35958,"stopLon":18.36466,"zoneId":1,"zoneName":"Gdańsk","stopUrl":"","locationType":null,"parentStation":null,"stopTimezone":"","wheelchairBoarding":null,"virtual":0,"nonpassenger":0,"depot":0,"ticketZoneBorder":0,"onDemand":0,"activationDate":"2017-04-21"},{"stopId":30114,"stopCode":"03","stopName":"Wrzeszcz PKP","stopShortName":"114","stopDesc":"Fregatowa","subName":"114","date":"2017-04-24","stopLat":54.50143,"stopLon":18.41358,"zoneId":1,"zoneName":"Gdańsk","stopUrl":"","locationType":null,"parentStation":null,"stopTimezone":"","wheelchairBoarding":null,"virtual":0,"nonpassenger":0,"depot":0,"ticketZoneBorder":0,"onDemand":0,"activationDate":"2017-04-21"},{"stopId":31446,"stopCode":"03","stopName":"Korczaka","stopShortName":"1446","stopDesc":"Żukowo - Słoneczna","subName":"1446","date":"2017-04-24","stopLat":54.36124,"stopLon":18.36467,"zoneId":1,"zoneName":"Gdańsk","stopUrl":"","locationType":null,"parentStation":null,"stopTimezone":"","wheelchairBoarding":null,"virtual":0,"nonpassenger":0,"depot":0,"ticketZoneBorder":0,"onDemand":1,"activationDate":"2017-04-21"},{"stopId":30115,"stopCode":"04","stopName":"Wrzeszcz PKP","stopShortName":"115","stopDesc":"Kmicica","subName":"115","date":"2017-04-24","stopLat":54.49747,"stopLon":18.41698,"zoneId":1,"zoneName":"Gdańsk","stopUrl":"","locationType":null,"parentStation":null,"stopTimezone":"","wheelchairBoarding":null,"virtual":0,"nonpassenger":0,"depot":0,"ticketZoneBorder":0,"onDemand":0,"activationDate":"2017-04-21"},{"stopId":30116,"stopCode":"05","stopName":"Wrzeszcz PKP","stopShortName":"116","stopDesc":"Potok Wiczliński","subName":"116","date":"2017-04-24","stopLat":54.49406,"stopLon":18.42006,"zoneId":1,"zoneName":"Gdańsk","stopUrl":"","locationType":null,"parentStation":null,"stopTimezone":"","wheelchairBoarding":null,"virtual":0,"nonpassenger":0,"depot":0,"ticketZoneBorder":0,"onDemand":0,"activationDate":"2017-04-21"},{"stopId":31440,"stopCode":"02","stopName":"Podkarpacka","stopShortName":"1440","stopDesc":"Borkowo - Kolonijna","subName":"1440","date":"2017-04-24","stopLat":54.32569,"stopLon":18.32059,"zoneId":1,"zoneName":"Gdańsk","stopUrl":"","locationType":null,"parentStation":null,"stopTimezone":"","wheelchairBoarding":null,"virtual":0,"nonpassenger":0,"depot":0,"ticketZoneBorder":0,"onDemand":0,"activationDate":"2017-04-21"},{"stopId":31441,"stopCode":"02","stopName":"Kilińskiego","stopShortName":"1441","stopDesc":"Borkowo","subName":"1441","date":"2017-04-24","stopLat":54.33477,"stopLon":18.33848,"zoneId":1,"zoneName":"Gdańsk","stopUrl":"","locationType":null,"parentStation":null,"stopTimezone":"","wheelchairBoarding":null,"virtual":0,"nonpassenger":0,"depot":0,"ticketZoneBorder":0,"onDemand":0,"activationDate":"2017-04-21"},{"stopId":30110,"stopCode":"02","stopName":"Wałowa","stopShortName":"110","stopDesc":"Potok Wiczliński","subName":"110","date":"2017-04-24","stopLat":54.49424,"stopLon":18.41997,"zoneId":1,"zoneName":"Gdańsk","stopUrl":"","locationType":null,"parentStation":null,"stopTimezone":"","wheelchairBoarding":null,"virtual":0,"nonpassenger":0,"depot":0,"ticketZoneBorder":0,"onDemand":0,"activationDate":"2017-04-21"},{"stopId":31442,"stopCode":"04","stopName":"Legionów","stopShortName":"1442","stopDesc":"Miszewko - Nowy Tuchom","subName":"1442","date":"2017-04-24","stopLat":54.41002,"stopLon":18.37016,"zoneId":1,"zoneName":"Gdańsk","stopUrl":"","locationType":null,"parentStation":null,"stopTimezone":"","wheelchairBoarding":null,"virtual":0,"nonpassenger":0,"depot":0,"ticketZoneBorder":0,"onDemand":0,"activationDate":"2017-04-21"},{"stopId":30111,"stopCode":"03","stopName":"Heweliusza","stopShortName":"111","stopDesc":"Kmicica","subName":"111","date":"2017-04-24","stopLat":54.49777,"stopLon":18.41684,"zoneId":1,"zoneName":"Gdańsk","stopUrl":"","locationType":null,"parentStation":null,"stopTimezone":"","wheelchairBoarding":null,"virtual":0,"nonpassenger":0,"depot":0,"ticketZoneBorder":0,"onDemand":0,"activationDate":"2017-04-21"},{"stopId":31443,"stopCode":"01","stopName":"Kopalniana","stopShortName":"1443","stopDesc":"Miszewko - Nowy Tuchom","subName":"1443","date":"2017-04-24","stopLat":54.41096,"stopLon":18.37116,"zoneId":1,"zoneName":"Gdańsk","stopUrl":"","locationType":null,"parentStation":null,"stopTimezone":"","wheelchairBoarding":null,"virtual":0,"nonpassenger":0,"depot":0,"ticketZoneBorder":0,"onDemand":0,"activationDate":"2017-04-21"},{"stopId":30112,"stopCode":"07","stopName":"Wrzeszcz PKP","stopShortName":"112","stopDesc":"Fregatowa","subName":"112","date":"2017-04-24","stopLat":54.50179,"stopLon":18.41341,"zoneId":1,"zoneName":"Gdańsk","stopUrl":"","locationType":null,"parentStation":null,"stopTimezone":"","wheelchairBoarding":null,"virtual":0,"nonpassenger":0,"depot":0,"ticketZoneBorder":0,"onDemand":0,"activationDate":"2017-04-21"},{"stopId":30117,"stopCode":"04","stopName":"Oliwa PKP","stopShortName":"117","stopDesc":"Wiczlino Skrzyżowanie","subName":"117","date":"2017-04-24","stopLat":54.49073,"stopLon":18.42498,"zoneId":1,"zoneName":"Gdańsk","stopUrl":"","locationType":null,"parentStation":null,"stopTimezone":"","wheelchairBoarding":null,"virtual":0,"nonpassenger":0,"depot":0,"ticketZoneBorder":0,"onDemand":0,"activationDate":"2017-04-21"},{"stopId":30118,"stopCode":"02","stopName":"Oliwa PKP","stopShortName":"118","stopDesc":"Zaruskiego","subName":"118","date":"2017-04-24","stopLat":54.49441,"stopLon":18.43015,"zoneId":1,"zoneName":"Gdańsk","stopUrl":"","locationType":null,"parentStation":null,"stopTimezone":"","wheelchairBoarding":null,"virtual":0,"nonpassenger":0,"depot":0,"ticketZoneBorder":0,"onDemand":0,"activationDate":"2017-04-21"},{"stopId":30119,"stopCode":"03","stopName":"Oliwa PKP","stopShortName":"119","stopDesc":"Kamrowskiego","subName":"119","date":"2017-04-24","stopLat":54.49711,"stopLon":18.43088,"zoneId":1,"zoneName":"Gdańsk","stopUrl":"","locationType":null,"parentStation":null,"stopTimezone":"","wheelchairBoarding":null,"virtual":0,"nonpassenger":0,"depot":0,"ticketZoneBorder":0,"onDemand":0,"activationDate":"2017-04-21"},{"stopId":30125,"stopCode":"02","stopName":"Nowy Port Szaniec Zachodni","stopShortName":"125","stopDesc":"Okrężna II","subName":"125","date":"2017-04-24","stopLat":54.5002,"stopLon":18.4668,"zoneId":1,"zoneName":"Gdańsk","stopUrl":"","locationType":null,"parentStation":null,"stopTimezone":"","wheelchairBoarding":null,"virtual":0,"nonpassenger":0,"depot":0,"ticketZoneBorder":0,"onDemand":0,"activationDate":"2017-04-21"},{"stopId":30126,"stopCode":null,"stopName":null,"stopShortName":"126","stopDesc":"Okrężna I","subName":"126","date":"2017-04-24","stopLat":54.49986,"stopLon":18.47069,"zoneId":null,"zoneName":null,"stopUrl":"","locationType":null,"parentStation":null,"stopTimezone":"","wheelchairBoarding":null,"virtual":null,"nonpassenger":null,"depot":null,"ticketZoneBorder":null,"onDemand":null,"activationDate":"2017-04-21"},{"stopId":30127,"stopCode":null,"stopName":null,"stopShortName":"127","stopDesc":"Witomino Sosnowa","subName":"127","date":"2017-04-24","stopLat":54.49838,"stopLon":18.49462,"zoneId":null,"zoneName":null,"stopUrl":"","locationType":null,"parentStation":null,"stopTimezone":"","wheelchairBoarding":null,"virtual":null,"nonpassenger":null,"depot":null,"ticketZoneBorder":null,"onDemand":null,"activationDate":"2017-04-21"},{"stopId":30120,"stopCode":"07","stopName":"Oliwa Pętla Tramwajowa","stopShortName":"120","stopDesc":"Gierdziejewskiego","subName":"120","date":"2017-04-24","stopLat":54.49913,"stopLon":18.43384,"zoneId":1,"zoneName":"Gdańsk","stopUrl":"","locationType":null,"parentStation":null,"stopTimezone":"","wheelchairBoarding":null,"virtual":0,"nonpassenger":0,"depot":0,"ticketZoneBorder":0,"onDemand":0,"activationDate":"2017-04-21"},{"stopId":30121,"stopCode":"02","stopName":"Żabianka SKM","stopShortName":"121","stopDesc":"Sokoła","subName":"121","date":"2017-04-24","stopLat":54.49883,"stopLon":18.44113,"zoneId":1,"zoneName":"Gdańsk","stopUrl":"","locationType":null,"parentStation":null,"stopTimezone":"","wheelchairBoarding":null,"virtual":0,"nonpassenger":0,"depot":0,"ticketZoneBorder":0,"onDemand":0,"activationDate":"2017-04-21"},{"stopId":30122,"stopCode":"03","stopName":"Jelitkowo Kapliczna","stopShortName":"122","stopDesc":"Tezeusza","subName":"122","date":"2017-04-24","stopLat":54.50029,"stopLon":18.44966,"zoneId":1,"zoneName":"Gdańsk","stopUrl":"","locationType":null,"parentStation":null,"stopTimezone":"","wheelchairBoarding":null,"virtual":0,"nonpassenger":0,"depot":0,"ticketZoneBorder":0,"onDemand":0,"activationDate":"2017-04-21"},{"stopId":30123,"stopCode":"03","stopName":"Przymorze SKM","stopShortName":"123","stopDesc":"Chwarzno Apollina","subName":"123","date":"2017-04-24","stopLat":54.50027,"stopLon":18.45769,"zoneId":1,"zoneName":"Gdańsk","stopUrl":"","locationType":null,"parentStation":null,"stopTimezone":"","wheelchairBoarding":null,"virtual":0,"nonpassenger":0,"depot":0,"ticketZoneBorder":0,"onDemand":0,"activationDate":"2017-04-21"},{"stopId":30128,"stopCode":"03","stopName":"Migowo","stopShortName":"128","stopDesc":"Uczniowska","subName":"128","date":"2017-04-24","stopLat":54.49852,"stopLon":18.50224,"zoneId":1,"zoneName":"Gdańsk","stopUrl":"","locationType":null,"parentStation":null,"stopTimezone":"","wheelchairBoarding":null,"virtual":0,"nonpassenger":0,"depot":0,"ticketZoneBorder":0,"onDemand":0,"activationDate":"2017-04-21"},{"stopId":30129,"stopCode":"04","stopName":"Chełm Witosa","stopShortName":"129","stopDesc":"Witomino Centrum","subName":"129","date":"2017-04-24","stopLat":54.49774,"stopLon":18.50927,"zoneId":1,"zoneName":"Gdańsk","stopUrl":"","locationType":null,"parentStation":null,"stopTimezone":"","wheelchairBoarding":null,"virtual":0,"nonpassenger":0,"depot":0,"ticketZoneBorder":0,"onDemand":0,"activationDate":"2017-04-21"},{"stopId":30130,"stopCode":"01","stopName":"Chełm Cienista","stopShortName":"130","stopDesc":"Stawna","subName":"130","date":"2017-04-24","stopLat":54.49467,"stopLon":18.50796,"zoneId":1,"zoneName":"Gdańsk","stopUrl":"","locationType":null,"parentStation":null,"stopTimezone":"","wheelchairBoarding":null,"virtual":0,"nonpassenger":0,"depot":0,"ticketZoneBorder":0,"onDemand":0,"activationDate":"2017-04-21"},{"stopId":31422,"stopCode":"01","stopName":"Ogrody Działkowe \"Rębiechowo\" II","stopShortName":"1422","stopDesc":"Żukowo - Baza PA \"Gryf\"","subName":"1422","date":"2017-04-24","stopLat":54.35483,"stopLon":18.37741,"zoneId":1,"zoneName":"Gdańsk","stopUrl":"","locationType":null,"parentStation":null,"stopTimezone":"","wheelchairBoarding":null,"virtual":0,"nonpassenger":0,"depot":0,"ticketZoneBorder":0,"onDemand":1,"activationDate":"2017-04-21"},{"stopId":31420,"stopCode":"03","stopName":"Budowlanych","stopShortName":"1420","stopDesc":"Żukowo - Os. Norbertanek","subName":"1420","date":"2017-04-24","stopLat":54.35157,"stopLon":18.3719,"zoneId":1,"zoneName":"Gdańsk","stopUrl":"","locationType":null,"parentStation":null,"stopTimezone":"","wheelchairBoarding":null,"virtual":0,"nonpassenger":0,"depot":0,"ticketZoneBorder":0,"onDemand":1,"activationDate":"2017-04-21"},{"stopId":31426,"stopCode":"01","stopName":"Przyrodników","stopShortName":"1426","stopDesc":"Żukowo - Baza PA \"Gryf\"","subName":"1426","date":"2017-04-24","stopLat":54.35438,"stopLon":18.37638,"zoneId":1,"zoneName":"Gdańsk","stopUrl":"","locationType":null,"parentStation":null,"stopTimezone":"","wheelchairBoarding":null,"virtual":0,"nonpassenger":0,"depot":0,"ticketZoneBorder":1,"onDemand":0,"activationDate":"2017-04-21"},{"stopId":31428,"stopCode":"02","stopName":"Leśna Góra - Przychodnia","stopShortName":"1428","stopDesc":"Żukowo - Os. Norbertanek","subName":"1428","date":"2017-04-24","stopLat":54.35122,"stopLon":18.37116,"zoneId":1,"zoneName":"Gdańsk","stopUrl":"","locationType":null,"parentStation":null,"stopTimezone":"","wheelchairBoarding":null,"virtual":0,"nonpassenger":0,"depot":0,"ticketZoneBorder":0,"onDemand":0,"activationDate":"2017-04-21"},{"stopId":30102,"stopCode":"02","stopName":"Port Lotniczy","stopShortName":"102","stopDesc":"Anyżowa","subName":"102","date":"2017-04-24","stopLat":54.47464,"stopLon":18.46855,"zoneId":1,"zoneName":"Gdańsk","stopUrl":"","locationType":null,"parentStation":null,"stopTimezone":"","wheelchairBoarding":null,"virtual":0,"nonpassenger":0,"depot":0,"ticketZoneBorder":0,"onDemand":0,"activationDate":"2017-04-21"},{"stopId":31433,"stopCode":"02","stopName":"Ogrodowa","stopShortName":"1433","stopDesc":"Tuchom - Tęczowa","subName":"1433","date":"2017-04-24","stopLat":54.42224,"stopLon":18.38253,"zoneId":1,"zoneName":"Gdańsk","stopUrl":"","locationType":null,"parentStation":null,"stopTimezone":"","wheelchairBoarding":null,"virtual":0,"nonpassenger":0,"depot":0,"ticketZoneBorder":0,"onDemand":1,"activationDate":"2017-04-21"},{"stopId":30103,"stopCode":"03","stopName":"Port Lotniczy","stopShortName":"103","stopDesc":"Dąbrowa Centrum","subName":"103","date":"2017-04-24","stopLat":54.47456,"stopLon":18.46417,"zoneId":1,"zoneName":"Gdańsk","stopUrl":"","locationType":null,"parentStation":null,"stopTimezone":"","wheelchairBoarding":null,"virtual":0,"nonpassenger":0,"depot":0,"ticketZoneBorder":0,"onDemand":0,"activationDate":"2017-04-21"},{"stopId":31434,"stopCode":"01","stopName":"Ogrodowa","stopShortName":"1434","stopDesc":"Żukowo - Urząd Gminy","subName":"1434","date":"2017-04-24","stopLat":54.34137,"stopLon":18.35524,"zoneId":1,"zoneName":"Gdańsk","stopUrl":"","locationType":null,"parentStation":null,"stopTimezone":"","wheelchairBoarding":null,"virtual":0,"nonpassenger":0,"depot":0,"ticketZoneBorder":0,"onDemand":1,"activationDate":"2017-04-21"},{"stopId":31435,"stopCode":"02","stopName":"Dolne Młyny","stopShortName":"1435","stopDesc":"Borkowo","subName":"1435","date":"2017-04-24","stopLat":54.33578,"stopLon":18.33895,"zoneId":1,"zoneName":"Gdańsk","stopUrl":"","locationType":null,"parentStation":null,"stopTimezone":"","wheelchairBoarding":null,"virtual":0,"nonpassenger":0,"depot":0,"ticketZoneBorder":0,"onDemand":1,"activationDate":"2017-04-21"},{"stopId":30104,"stopCode":"04","stopName":"Port Lotniczy","stopShortName":"104","stopDesc":"Wiczlińska - Las","subName":"104","date":"2017-04-24","stopLat":54.47818,"stopLon":18.45124,"zoneId":1,"zoneName":"Gdańsk","stopUrl":"","locationType":null,"parentStation":null,"stopTimezone":"","wheelchairBoarding":null,"virtual":0,"nonpassenger":0,"depot":0,"ticketZoneBorder":0,"onDemand":0,"activationDate":"2017-04-21"},{"stopId":31436,"stopCode":"01","stopName":"Dolne Młyny","stopShortName":"1436","stopDesc":"Borkowo - Kolonijna","subName":"1436","date":"2017-04-24","stopLat":54.32535,"stopLon":18.3196,"zoneId":1,"zoneName":"Gdańsk","stopUrl":"","locationType":null,"parentStation":null,"stopTimezone":"","wheelchairBoarding":null,"virtual":0,"nonpassenger":0,"depot":0,"ticketZoneBorder":0,"onDemand":1,"activationDate":"2017-04-21"},{"stopId":30105,"stopCode":null,"stopName":null,"stopShortName":"105","stopDesc":"Wiczlino Działki II","subName":"105","date":"2017-04-24","stopLat":54.48112,"stopLon":18.44249,"zoneId":null,"zoneName":null,"stopUrl":"","locationType":null,"parentStation":null,"stopTimezone":"","wheelchairBoarding":null,"virtual":null,"nonpassenger":null,"depot":null,"ticketZoneBorder":null,"onDemand":null,"activationDate":"2017-04-21"},{"stopId":31430,"stopCode":"02","stopName":"Górecka","stopShortName":"1430","stopDesc":"Miszewo - Pępowo","subName":"1430","date":"2017-04-24","stopLat":54.37979,"stopLon":18.36167,"zoneId":1,"zoneName":"Gdańsk","stopUrl":"","locationType":null,"parentStation":null,"stopTimezone":"","wheelchairBoarding":null,"virtual":0,"nonpassenger":0,"depot":0,"ticketZoneBorder":0,"onDemand":1,"activationDate":"2017-04-21"},{"stopId":31431,"stopCode":"04","stopName":"Potokowa","stopShortName":"1431","stopDesc":"Miszewo - Pępowo","subName":"1431","date":"2017-04-24","stopLat":54.38078,"stopLon":18.36179,"zoneId":1,"zoneName":"Gdańsk","stopUrl":"","locationType":null,"parentStation":null,"stopTimezone":"","wheelchairBoarding":null,"virtual":0,"nonpassenger":0,"depot":0,"ticketZoneBorder":0,"onDemand":0,"activationDate":"2017-04-21"},{"stopId":31432,"stopCode":"05","stopName":"Chrzanowskiego","stopShortName":"1432","stopDesc":"Tuchom - Tęczowa","subName":"1432","date":"2017-04-24","stopLat":54.42148,"stopLon":18.38139,"zoneId":1,"zoneName":"Gdańsk","stopUrl":"","locationType":null,"parentStation":null,"stopTimezone":"","wheelchairBoarding":null,"virtual":0,"nonpassenger":0,"depot":0,"ticketZoneBorder":0,"onDemand":0,"activationDate":"2017-04-21"},{"stopId":30106,"stopCode":null,"stopName":null,"stopShortName":"106","stopDesc":"Wiczlino Działki I","subName":"106","date":"2017-04-24","stopLat":54.48177,"stopLon":18.43732,"zoneId":null,"zoneName":null,"stopUrl":"","locationType":null,"parentStation":null,"stopTimezone":"","wheelchairBoarding":null,"virtual":null,"nonpassenger":null,"depot":null,"ticketZoneBorder":null,"onDemand":null,"activationDate":"2017-04-21"},{"stopId":30107,"stopCode":null,"stopName":null,"stopShortName":"107","stopDesc":"Wiczlińska - Śliska","subName":"107","date":"2017-04-24","stopLat":54.48335,"stopLon":18.43728,"zoneId":null,"zoneName":null,"stopUrl":"","locationType":null,"parentStation":null,"stopTimezone":"","wheelchairBoarding":null,"virtual":null,"nonpassenger":null,"depot":null,"ticketZoneBorder":null,"onDemand":null,"activationDate":"2017-04-21"},{"stopId":30108,"stopCode":"03","stopName":"Cmentarz Garnizonowy","stopShortName":"108","stopDesc":"Gradowa","subName":"108","date":"2017-04-24","stopLat":54.48605,"stopLon":18.4326,"zoneId":1,"zoneName":"Gdańsk","stopUrl":"","locationType":null,"parentStation":null,"stopTimezone":"","wheelchairBoarding":null,"virtual":0,"nonpassenger":0,"depot":0,"ticketZoneBorder":0,"onDemand":0,"activationDate":"2017-04-21"},{"stopId":30109,"stopCode":"22","stopName":"Dworzec Główny","stopShortName":"109","stopDesc":"Wiczlino Skrzyżowanie","subName":"109","date":"2017-04-24","stopLat":54.49066,"stopLon":18.42398,"zoneId":1,"zoneName":"Gdańsk","stopUrl":"","locationType":null,"parentStation":null,"stopTimezone":"","wheelchairBoarding":null,"virtual":0,"nonpassenger":0,"depot":0,"ticketZoneBorder":0,"onDemand":0,"activationDate":"2017-04-21"},{"stopId":30135,"stopCode":"01","stopName":"Równa","stopShortName":"135","stopDesc":"Długa","subName":"135","date":"2017-04-24","stopLat":54.49621,"stopLon":18.51191,"zoneId":1,"zoneName":"Gdańsk","stopUrl":"","locationType":null,"parentStation":null,"stopTimezone":"","wheelchairBoarding":null,"virtual":0,"nonpassenger":0,"depot":0,"ticketZoneBorder":0,"onDemand":0,"activationDate":"2017-04-21"},{"stopId":30136,"stopCode":null,"stopName":null,"stopShortName":"136","stopDesc":"Witomino Centrum","subName":"136","date":"2017-04-24","stopLat":54.49778,"stopLon":18.51035,"zoneId":null,"zoneName":null,"stopUrl":"","locationType":null,"parentStation":null,"stopTimezone":"","wheelchairBoarding":null,"virtual":null,"nonpassenger":null,"depot":null,"ticketZoneBorder":null,"onDemand":null,"activationDate":"2017-04-21"},{"stopId":30137,"stopCode":"02","stopName":"Olszynka - Szkoła","stopShortName":"137","stopDesc":"Centrum Handlowe \"Riviera\"","subName":"137","date":"2017-04-24","stopLat":54.50384,"stopLon":18.5332,"zoneId":1,"zoneName":"Gdańsk","stopUrl":"","locationType":null,"parentStation":null,"stopTimezone":"","wheelchairBoarding":null,"virtual":0,"nonpassenger":0,"depot":0,"ticketZoneBorder":0,"onDemand":0,"activationDate":"2017-04-21"},{"stopId":30138,"stopCode":"08","stopName":"Stogi Pasanil","stopShortName":"138","stopDesc":"Centrum Handlowe \"Riviera\"","subName":"138","date":"2017-04-24","stopLat":54.50297,"stopLon":18.53291,"zoneId":1,"zoneName":"Gdańsk","stopUrl":"","locationType":null,"parentStation":null,"stopTimezone":"","wheelchairBoarding":null,"virtual":0,"nonpassenger":0,"depot":0,"ticketZoneBorder":0,"onDemand":0,"activationDate":"2017-04-21"},{"stopId":30131,"stopCode":null,"stopName":null,"stopShortName":"131","stopDesc":"Witomino Leśniczówka","subName":"131","date":"2017-04-24","stopLat":54.49136,"stopLon":18.51219,"zoneId":null,"zoneName":null,"stopUrl":"","locationType":null,"parentStation":null,"stopTimezone":"","wheelchairBoarding":null,"virtual":null,"nonpassenger":null,"depot":null,"ticketZoneBorder":null,"onDemand":null,"activationDate":"2017-04-21"},{"stopId":30132,"stopCode":"01","stopName":"Orunia Górna","stopShortName":"132","stopDesc":"Stawna","subName":"132","date":"2017-04-24","stopLat":54.49557,"stopLon":18.50837,"zoneId":1,"zoneName":"Gdańsk","stopUrl":"","locationType":null,"parentStation":null,"stopTimezone":"","wheelchairBoarding":null,"virtual":0,"nonpassenger":0,"depot":0,"ticketZoneBorder":0,"onDemand":0,"activationDate":"2017-04-21"},{"stopId":30133,"stopCode":"01","stopName":"Maćkowy Mleczarnia","stopShortName":"133","stopDesc":"Stawna","subName":"133","date":"2017-04-24","stopLat":54.49493,"stopLon":18.50877,"zoneId":1,"zoneName":"Gdańsk","stopUrl":"","locationType":null,"parentStation":null,"stopTimezone":"","wheelchairBoarding":null,"virtual":0,"nonpassenger":0,"depot":0,"ticketZoneBorder":0,"onDemand":0,"activationDate":"2017-04-21"},{"stopId":30134,"stopCode":"02","stopName":"Chełm Cienista","stopShortName":"134","stopDesc":"Witomino Polna","subName":"134","date":"2017-04-24","stopLat":54.49501,"stopLon":18.51486,"zoneId":1,"zoneName":"Gdańsk","stopUrl":"","locationType":null,"parentStation":null,"stopTimezone":"","wheelchairBoarding":null,"virtual":0,"nonpassenger":0,"depot":0,"ticketZoneBorder":0,"onDemand":0,"activationDate":"2017-04-21"},{"stopId":30139,"stopCode":"01","stopName":"Górki Zachodnie","stopShortName":"139","stopDesc":"Witomino Centrum","subName":"139","date":"2017-04-24","stopLat":54.49885,"stopLon":18.51099,"zoneId":1,"zoneName":"Gdańsk","stopUrl":"","locationType":null,"parentStation":null,"stopTimezone":"","wheelchairBoarding":null,"virtual":0,"nonpassenger":0,"depot":0,"ticketZoneBorder":0,"onDemand":0,"activationDate":"2017-04-21"},{"stopId":30140,"stopCode":"01","stopName":"Nabrzeże Przemysłowe","stopShortName":"140","stopDesc":"Rolnicza ","subName":"140","date":"2017-04-24","stopLat":54.50071,"stopLon":18.51355,"zoneId":1,"zoneName":"Gdańsk","stopUrl":"","locationType":null,"parentStation":null,"stopTimezone":"","wheelchairBoarding":null,"virtual":0,"nonpassenger":0,"depot":0,"ticketZoneBorder":0,"onDemand":0,"activationDate":"2017-04-21"},{"stopId":30141,"stopCode":"01","stopName":"Westerplatte","stopShortName":"141","stopDesc":"Węzeł Franciszki Cegielskiej","subName":"141","date":"2017-04-24","stopLat":54.50803,"stopLon":18.53325,"zoneId":1,"zoneName":"Gdańsk","stopUrl":"","locationType":null,"parentStation":null,"stopTimezone":"","wheelchairBoarding":null,"virtual":0,"nonpassenger":0,"depot":0,"ticketZoneBorder":0,"onDemand":0,"activationDate":"2017-04-21"},{"stopId":30146,"stopCode":"01","stopName":"Kiełpino Górne (Lipuska)","stopShortName":"146","stopDesc":"Chwarzno Apollina","subName":"146","date":"2017-04-24","stopLat":54.50036,"stopLon":18.45786,"zoneId":1,"zoneName":"Gdańsk","stopUrl":"","locationType":null,"parentStation":null,"stopTimezone":"","wheelchairBoarding":null,"virtual":0,"nonpassenger":0,"depot":0,"ticketZoneBorder":0,"onDemand":0,"activationDate":"2017-04-21"},{"stopId":30147,"stopCode":"05","stopName":"Bysewo","stopShortName":"147","stopDesc":"Wiczlino Niemotowo","subName":"147","date":"2017-04-24","stopLat":54.50624,"stopLon":18.40497,"zoneId":1,"zoneName":"Gdańsk","stopUrl":"","locationType":null,"parentStation":null,"stopTimezone":"","wheelchairBoarding":null,"virtual":0,"nonpassenger":0,"depot":0,"ticketZoneBorder":0,"onDemand":0,"activationDate":"2017-04-21"},{"stopId":30142,"stopCode":"01","stopName":"Górki Wschodnie","stopShortName":"142","stopDesc":"Cmentarz Witomiński","subName":"142","date":"2017-04-24","stopLat":54.50993,"stopLon":18.52008,"zoneId":1,"zoneName":"Gdańsk","stopUrl":"","locationType":null,"parentStation":null,"stopTimezone":"","wheelchairBoarding":null,"virtual":0,"nonpassenger":0,"depot":0,"ticketZoneBorder":0,"onDemand":0,"activationDate":"2017-04-21"},{"stopId":30143,"stopCode":"01","stopName":"Przegalina","stopShortName":"143","stopDesc":"Poznańska","subName":"143","date":"2017-04-24","stopLat":54.51098,"stopLon":18.53114,"zoneId":1,"zoneName":"Gdańsk","stopUrl":"","locationType":null,"parentStation":null,"stopTimezone":"","wheelchairBoarding":null,"virtual":0,"nonpassenger":0,"depot":0,"ticketZoneBorder":0,"onDemand":0,"activationDate":"2017-04-21"},{"stopId":30145,"stopCode":"03","stopName":"Kowale - Starowiejska","stopShortName":"145","stopDesc":"Witomino Leśniczówka","subName":"145","date":"2017-04-24","stopLat":54.49168,"stopLon":18.51117,"zoneId":3,"zoneName":"Kolbudy","stopUrl":"","locationType":null,"parentStation":null,"stopTimezone":"","wheelchairBoarding":null,"virtual":0,"nonpassenger":0,"depot":0,"ticketZoneBorder":0,"onDemand":0,"activationDate":"2017-04-21"},{"stopId":30150,"stopCode":"01","stopName":"Matemblewo","stopShortName":"150","stopDesc":"Chwarzno Sokółka","subName":"150","date":"2017-04-24","stopLat":54.49764,"stopLon":18.43835,"zoneId":1,"zoneName":"Gdańsk","stopUrl":"","locationType":null,"parentStation":null,"stopTimezone":"","wheelchairBoarding":null,"virtual":0,"nonpassenger":0,"depot":0,"ticketZoneBorder":0,"onDemand":0,"activationDate":"2017-04-21"},{"stopId":30151,"stopCode":"01","stopName":"Suchanino","stopShortName":"151","stopDesc":"Chwarzno Sokółka","subName":"151","date":"2017-04-24","stopLat":54.49733,"stopLon":18.43769,"zoneId":1,"zoneName":"Gdańsk","stopUrl":"","locationType":null,"parentStation":null,"stopTimezone":"","wheelchairBoarding":null,"virtual":0,"nonpassenger":0,"depot":0,"ticketZoneBorder":0,"onDemand":0,"activationDate":"2017-04-21"},{"stopId":30152,"stopCode":"01","stopName":"Osowa Przesypownia","stopShortName":"152","stopDesc":"Amona","subName":"152","date":"2017-04-24","stopLat":54.49981,"stopLon":18.44706,"zoneId":1,"zoneName":"Gdańsk","stopUrl":"","locationType":null,"parentStation":null,"stopTimezone":"","wheelchairBoarding":null,"virtual":0,"nonpassenger":0,"depot":0,"ticketZoneBorder":0,"onDemand":0,"activationDate":"2017-04-21"},{"stopId":1570,"stopCode":"03","stopName":"Pomorska - Osiedle","stopShortName":"1570","stopDesc":"Pomorska - Osiedle","subName":"03","date":"2017-04-24","stopLat":54.418,"stopLon":18.57803,"zoneId":1,"zoneName":"Gdańsk","stopUrl":"","locationType":null,"parentStation":null,"stopTimezone":"","wheelchairBoarding":null,"virtual":0,"nonpassenger":0,"depot":0,"ticketZoneBorder":0,"onDemand":0,"activationDate":"2017-04-21"},{"stopId":1579,"stopCode":"01","stopName":"Krzemowa","stopShortName":"1579","stopDesc":"Krzemowa","subName":" ","date":"2017-04-24","stopLat":54.32462,"stopLon":18.61801,"zoneId":1,"zoneName":"Gdańsk","stopUrl":"","locationType":null,"parentStation":null,"stopTimezone":"","wheelchairBoarding":null,"virtual":0,"nonpassenger":0,"depot":0,"ticketZoneBorder":0,"onDemand":0,"activationDate":"2017-04-21"},{"stopId":1576,"stopCode":"01","stopName":"Siedleckiego","stopShortName":"1576","stopDesc":"Siedleckiego","subName":" ","date":"2017-04-24","stopLat":54.42996,"stopLon":18.46975,"zoneId":1,"zoneName":"Gdańsk","stopUrl":"","locationType":null,"parentStation":null,"stopTimezone":"","wheelchairBoarding":null,"virtual":0,"nonpassenger":0,"depot":0,"ticketZoneBorder":0,"onDemand":0,"activationDate":"2017-04-21"},{"stopId":1575,"stopCode":"02","stopName":"Siedleckiego","stopShortName":"1575","stopDesc":"Siedleckiego","subName":" ","date":"2017-04-24","stopLat":54.42952,"stopLon":18.46936,"zoneId":1,"zoneName":"Gdańsk","stopUrl":"","locationType":null,"parentStation":null,"stopTimezone":"","wheelchairBoarding":null,"virtual":0,"nonpassenger":0,"depot":0,"ticketZoneBorder":0,"onDemand":0,"activationDate":"2017-04-21"},{"stopId":1578,"stopCode":"01","stopName":"Sołdka","stopShortName":"1578","stopDesc":"Sołdka","subName":" ","date":"2017-04-24","stopLat":54.42616,"stopLon":18.47246,"zoneId":1,"zoneName":"Gdańsk","stopUrl":"","locationType":null,"parentStation":null,"stopTimezone":"","wheelchairBoarding":null,"virtual":0,"nonpassenger":0,"depot":0,"ticketZoneBorder":0,"onDemand":0,"activationDate":"2017-04-21"},{"stopId":1577,"stopCode":"02","stopName":"Sołdka","stopShortName":"1577","stopDesc":"Sołdka","subName":" ","date":"2017-04-24","stopLat":54.42628,"stopLon":18.47259,"zoneId":1,"zoneName":"Gdańsk","stopUrl":"","locationType":null,"parentStation":null,"stopTimezone":"","wheelchairBoarding":null,"virtual":0,"nonpassenger":0,"depot":0,"ticketZoneBorder":0,"onDemand":0,"activationDate":"2017-04-21"},{"stopId":1572,"stopCode":"01","stopName":"Iławska","stopShortName":"1572","stopDesc":"Iławska","subName":" ","date":"2017-04-24","stopLat":54.43921,"stopLon":18.45906,"zoneId":1,"zoneName":"Gdańsk","stopUrl":"","locationType":null,"parentStation":null,"stopTimezone":"","wheelchairBoarding":null,"virtual":0,"nonpassenger":0,"depot":0,"ticketZoneBorder":0,"onDemand":0,"activationDate":"2017-04-21"},{"stopId":1571,"stopCode":"02","stopName":"Iławska","stopShortName":"1571","stopDesc":"Iławska","subName":" ","date":"2017-04-24","stopLat":54.43956,"stopLon":18.45845,"zoneId":1,"zoneName":"Gdańsk","stopUrl":"","locationType":null,"parentStation":null,"stopTimezone":"","wheelchairBoarding":null,"virtual":0,"nonpassenger":0,"depot":0,"ticketZoneBorder":0,"onDemand":0,"activationDate":"2017-04-21"},{"stopId":1574,"stopCode":"01","stopName":"Myśliborska","stopShortName":"1574","stopDesc":"Myśliborska","subName":" ","date":"2017-04-24","stopLat":54.4417,"stopLon":18.4525,"zoneId":1,"zoneName":"Gdańsk","stopUrl":"","locationType":null,"parentStation":null,"stopTimezone":"","wheelchairBoarding":null,"virtual":0,"nonpassenger":0,"depot":0,"ticketZoneBorder":1,"onDemand":0,"activationDate":"2017-04-21"},{"stopId":1573,"stopCode":"02","stopName":"Myśliborska","stopShortName":"1573","stopDesc":"Myśliborska","subName":" ","date":"2017-04-24","stopLat":54.4419,"stopLon":18.45124,"zoneId":1,"zoneName":"Gdańsk","stopUrl":"","locationType":null,"parentStation":null,"stopTimezone":"","wheelchairBoarding":null,"virtual":0,"nonpassenger":0,"depot":0,"ticketZoneBorder":1,"onDemand":0,"activationDate":"2017-04-21"},{"stopId":1581,"stopCode":"03","stopName":"Sopocka","stopShortName":"1581","stopDesc":"Sopocka","subName":"03 ","date":"2017-04-24","stopLat":54.42895,"stopLon":18.47909,"zoneId":1,"zoneName":"Gdańsk","stopUrl":"","locationType":null,"parentStation":null,"stopTimezone":"","wheelchairBoarding":null,"virtual":0,"nonpassenger":0,"depot":0,"ticketZoneBorder":0,"onDemand":0,"activationDate":"2017-04-21"},{"stopId":1580,"stopCode":"06","stopName":"al. Hallera","stopShortName":"1580","stopDesc":"Aleja Hallera (N/Ż)","subName":"06","date":"2017-04-24","stopLat":54.40126,"stopLon":18.62195,"zoneId":1,"zoneName":"Gdańsk","stopUrl":"","locationType":null,"parentStation":null,"stopTimezone":"","wheelchairBoarding":null,"virtual":0,"nonpassenger":0,"depot":0,"ticketZoneBorder":0,"onDemand":1,"activationDate":"2017-04-21"},{"stopId":1587,"stopCode":"01.","stopName":"Na Zaspę","stopShortName":"1587","stopDesc":"Na Zaspę","subName":"03","date":"2017-04-24","stopLat":54.40163,"stopLon":18.6647,"zoneId":1,"zoneName":"Gdańsk","stopUrl":"","locationType":null,"parentStation":null,"stopTimezone":"","wheelchairBoarding":null,"virtual":0,"nonpassenger":0,"depot":0,"ticketZoneBorder":0,"onDemand":0,"activationDate":"2017-04-21"},{"stopId":1586,"stopCode":"04","stopName":"Latarnia Morska","stopShortName":"1586","stopDesc":"Latarnia Morska","subName":" ","date":"2017-04-24","stopLat":54.40467,"stopLon":18.65926,"zoneId":1,"zoneName":"Gdańsk","stopUrl":"","locationType":null,"parentStation":null,"stopTimezone":"","wheelchairBoarding":null,"virtual":0,"nonpassenger":0,"depot":0,"ticketZoneBorder":0,"onDemand":0,"activationDate":"2017-04-21"},{"stopId":1589,"stopCode":"03","stopName":"Krasickiego","stopShortName":"1589","stopDesc":"Krasickiego (N/Ż)","subName":"03","date":"2017-04-24","stopLat":54.40598,"stopLon":18.6445,"zoneId":1,"zoneName":"Gdańsk","stopUrl":"","locationType":null,"parentStation":null,"stopTimezone":"","wheelchairBoarding":null,"virtual":0,"nonpassenger":0,"depot":0,"ticketZoneBorder":0,"onDemand":1,"activationDate":"2017-04-21"},{"stopId":1588,"stopCode":"02","stopName":"Na Zaspę","stopShortName":"1588","stopDesc":"Na Zaspę","subName":"04","date":"2017-04-24","stopLat":54.40192,"stopLon":18.66524,"zoneId":1,"zoneName":"Gdańsk","stopUrl":"","locationType":null,"parentStation":null,"stopTimezone":"","wheelchairBoarding":null,"virtual":0,"nonpassenger":0,"depot":0,"ticketZoneBorder":0,"onDemand":0,"activationDate":"2017-04-21"},{"stopId":1583,"stopCode":"01","stopName":"Montażystów","stopShortName":"1583","stopDesc":"Montażystów","subName":"01","date":"2017-04-24","stopLat":54.35837,"stopLon":18.49679,"zoneId":1,"zoneName":"Gdańsk","stopUrl":"","locationType":null,"parentStation":null,"stopTimezone":"","wheelchairBoarding":null,"virtual":0,"nonpassenger":0,"depot":0,"ticketZoneBorder":0,"onDemand":0,"activationDate":"2017-04-21"},{"stopId":1585,"stopCode":"03","stopName":"Latarnia Morska","stopShortName":"1585","stopDesc":"Latarnia Morska","subName":" ","date":"2017-04-24","stopLat":54.40454,"stopLon":18.65944,"zoneId":1,"zoneName":"Gdańsk","stopUrl":"","locationType":null,"parentStation":null,"stopTimezone":"","wheelchairBoarding":null,"virtual":0,"nonpassenger":0,"depot":0,"ticketZoneBorder":0,"onDemand":0,"activationDate":"2017-04-21"},{"stopId":1590,"stopCode":"02.","stopName":"Krasickiego","stopShortName":"1590","stopDesc":"Krasickiego (N/Ż)","subName":"04","date":"2017-04-24","stopLat":54.40618,"stopLon":18.64401,"zoneId":1,"zoneName":"Gdańsk","stopUrl":"","locationType":null,"parentStation":null,"stopTimezone":"","wheelchairBoarding":null,"virtual":0,"nonpassenger":0,"depot":0,"ticketZoneBorder":0,"onDemand":1,"activationDate":"2017-04-21"},{"stopId":1592,"stopCode":"02","stopName":"Plac Wolności","stopShortName":"1592","stopDesc":"Plac Wolności","subName":" ","date":"2017-04-24","stopLat":54.39914,"stopLon":18.66828,"zoneId":1,"zoneName":"Gdańsk","stopUrl":"","locationType":null,"parentStation":null,"stopTimezone":"","wheelchairBoarding":null,"virtual":0,"nonpassenger":0,"depot":0,"ticketZoneBorder":0,"onDemand":0,"activationDate":"2017-04-21"},{"stopId":1591,"stopCode":"01","stopName":"Plac Wolności","stopShortName":"1591","stopDesc":"Plac Wolności","subName":"01","date":"2017-04-24","stopLat":54.39908,"stopLon":18.66984,"zoneId":1,"zoneName":"Gdańsk","stopUrl":"","locationType":null,"parentStation":null,"stopTimezone":"","wheelchairBoarding":null,"virtual":0,"nonpassenger":0,"depot":0,"ticketZoneBorder":0,"onDemand":0,"activationDate":"2017-04-21"},{"stopId":1598,"stopCode":"05","stopName":"Opera Bałtycka","stopShortName":"1598","stopDesc":"Opera Bałtycka (N/Ż)","subName":"05","date":"2017-04-24","stopLat":54.37318,"stopLon":18.62351,"zoneId":1,"zoneName":"Gdańsk","stopUrl":"","locationType":null,"parentStation":null,"stopTimezone":"","wheelchairBoarding":null,"virtual":0,"nonpassenger":0,"depot":0,"ticketZoneBorder":0,"onDemand":0,"activationDate":"2017-04-21"},{"stopId":1597,"stopCode":"04","stopName":"Opera Bałtycka","stopShortName":"1597","stopDesc":"Opera Bałtycka (N/Ż)","subName":"04","date":"2017-04-24","stopLat":54.37248,"stopLon":18.62323,"zoneId":1,"zoneName":"Gdańsk","stopUrl":"","locationType":null,"parentStation":null,"stopTimezone":"","wheelchairBoarding":null,"virtual":0,"nonpassenger":0,"depot":0,"ticketZoneBorder":0,"onDemand":0,"activationDate":"2017-04-21"},{"stopId":1599,"stopCode":"04","stopName":"Uniwersytet Medyczny","stopShortName":"1599","stopDesc":"Uniwersytet Medyczny","subName":" ","date":"2017-04-24","stopLat":54.36734,"stopLon":18.63161,"zoneId":1,"zoneName":"Gdańsk","stopUrl":"","locationType":null,"parentStation":null,"stopTimezone":"","wheelchairBoarding":null,"virtual":0,"nonpassenger":0,"depot":0,"ticketZoneBorder":0,"onDemand":0,"activationDate":"2017-04-21"},{"stopId":1594,"stopCode":"03","stopName":"Dmowskiego","stopShortName":"1594","stopDesc":"Dmowskiego","subName":"03","date":"2017-04-24","stopLat":54.37856,"stopLon":18.60649,"zoneId":1,"zoneName":"Gdańsk","stopUrl":"","locationType":null,"parentStation":null,"stopTimezone":"","wheelchairBoarding":null,"virtual":0,"nonpassenger":0,"depot":0,"ticketZoneBorder":0,"onDemand":0,"activationDate":"2017-04-21"},{"stopId":1593,"stopCode":"04","stopName":"Jaśkowa Dolina","stopShortName":"1593","stopDesc":"Jaśkowa Dolina","subName":"04","date":"2017-04-24","stopLat":54.37759,"stopLon":18.60818,"zoneId":1,"zoneName":"Gdańsk","stopUrl":"","locationType":null,"parentStation":null,"stopTimezone":"","wheelchairBoarding":null,"virtual":0,"nonpassenger":0,"depot":0,"ticketZoneBorder":0,"onDemand":0,"activationDate":"2017-04-21"},{"stopId":1596,"stopCode":"03","stopName":"Teatr Miniatura / Radio Gdańsk","stopShortName":"1596","stopDesc":"Teatr Miniatura / Radio Gdańsk (N/Ż)","subName":"03","date":"2017-04-24","stopLat":54.37586,"stopLon":18.61626,"zoneId":1,"zoneName":"Gdańsk","stopUrl":"","locationType":null,"parentStation":null,"stopTimezone":"","wheelchairBoarding":null,"virtual":0,"nonpassenger":0,"depot":0,"ticketZoneBorder":0,"onDemand":0,"activationDate":"2017-04-21"},{"stopId":1595,"stopCode":"04","stopName":"Teatr Miniatura / Radio Gdańsk","stopShortName":"1595","stopDesc":"Teatr Miniatura / Radio Gdańsk (N/Ż)","subName":"04","date":"2017-04-24","stopLat":54.37519,"stopLon":18.6176,"zoneId":1,"zoneName":"Gdańsk","stopUrl":"","locationType":null,"parentStation":null,"stopTimezone":"","wheelchairBoarding":null,"virtual":0,"nonpassenger":0,"depot":0,"ticketZoneBorder":0,"onDemand":0,"activationDate":"2017-04-21"},{"stopId":1536,"stopCode":"02","stopName":"Cmentarz Oliwski","stopShortName":"1536","stopDesc":"Cmentarz Oliwski","subName":"02","date":"2017-04-24","stopLat":54.41346,"stopLon":18.55714,"zoneId":1,"zoneName":"Gdańsk","stopUrl":"","locationType":null,"parentStation":null,"stopTimezone":"","wheelchairBoarding":null,"virtual":0,"nonpassenger":0,"depot":0,"ticketZoneBorder":0,"onDemand":0,"activationDate":"2017-04-21"},{"stopId":1535,"stopCode":"01","stopName":"Karpacka (Cm. Oliwski)","stopShortName":"1535","stopDesc":"Sarnia","subName":" ","date":"2017-04-24","stopLat":54.41615,"stopLon":18.55866,"zoneId":1,"zoneName":"Gdańsk","stopUrl":"","locationType":null,"parentStation":null,"stopTimezone":"","wheelchairBoarding":null,"virtual":0,"nonpassenger":0,"depot":0,"ticketZoneBorder":0,"onDemand":0,"activationDate":"2017-04-21"},{"stopId":1538,"stopCode":"02","stopName":"Bobrowa","stopShortName":"1538","stopDesc":"Bobrowa (N/Ż)","subName":" ","date":"2017-04-24","stopLat":54.41836,"stopLon":18.55973,"zoneId":1,"zoneName":"Gdańsk","stopUrl":"","locationType":null,"parentStation":null,"stopTimezone":"","wheelchairBoarding":null,"virtual":0,"nonpassenger":0,"depot":0,"ticketZoneBorder":0,"onDemand":1,"activationDate":"2017-04-21"},{"stopId":1537,"stopCode":"01","stopName":"Bobrowa","stopShortName":"1537","stopDesc":"Bobrowa (N/Ż)","subName":" ","date":"2017-04-24","stopLat":54.42042,"stopLon":18.56098,"zoneId":1,"zoneName":"Gdańsk","stopUrl":"","locationType":null,"parentStation":null,"stopTimezone":"","wheelchairBoarding":null,"virtual":0,"nonpassenger":0,"depot":0,"ticketZoneBorder":0,"onDemand":1,"activationDate":"2017-04-21"},{"stopId":1532,"stopCode":"01","stopName":"Droszyńskiego","stopShortName":"1532","stopDesc":"Droszyńskiego","subName":"01","date":"2017-04-24","stopLat":54.41235,"stopLon":18.57339,"zoneId":1,"zoneName":"Gdańsk","stopUrl":"","locationType":null,"parentStation":null,"stopTimezone":"","wheelchairBoarding":null,"virtual":0,"nonpassenger":0,"depot":0,"ticketZoneBorder":0,"onDemand":0,"activationDate":"2017-04-21"},{"stopId":1531,"stopCode":"02","stopName":"Droszyńskiego","stopShortName":"1531","stopDesc":"Droszyńskiego","subName":"02","date":"2017-04-24","stopLat":54.41254,"stopLon":18.57364,"zoneId":1,"zoneName":"Gdańsk","stopUrl":"","locationType":null,"parentStation":null,"stopTimezone":"","wheelchairBoarding":null,"virtual":0,"nonpassenger":0,"depot":0,"ticketZoneBorder":0,"onDemand":0,"activationDate":"2017-04-21"},{"stopId":1534,"stopCode":"08","stopName":"Oliwa Pętla Tramwajowa","stopShortName":"1534","stopDesc":"Oliwa Pętla Tramwajowa","subName":"06","date":"2017-04-24","stopLat":54.41012,"stopLon":18.5656,"zoneId":1,"zoneName":"Gdańsk","stopUrl":"","locationType":null,"parentStation":null,"stopTimezone":"","wheelchairBoarding":null,"virtual":0,"nonpassenger":0,"depot":0,"ticketZoneBorder":0,"onDemand":0,"activationDate":"2017-04-21"},{"stopId":1533,"stopCode":"06","stopName":"Oliwa Pętla Tramwajowa","stopShortName":"1533","stopDesc":"Oliwa Pętla Tramwajowa","subName":"07","date":"2017-04-24","stopLat":54.4093,"stopLon":18.56739,"zoneId":1,"zoneName":"Gdańsk","stopUrl":"","locationType":null,"parentStation":null,"stopTimezone":"","wheelchairBoarding":null,"virtual":0,"nonpassenger":0,"depot":0,"ticketZoneBorder":0,"onDemand":0,"activationDate":"2017-04-21"},{"stopId":1530,"stopCode":"01","stopName":"Poznańska","stopShortName":"1530","stopDesc":"Poznańska (N/Ż)","subName":" ","date":"2017-04-24","stopLat":54.41446,"stopLon":18.58001,"zoneId":1,"zoneName":"Gdańsk","stopUrl":"","locationType":null,"parentStation":null,"stopTimezone":"","wheelchairBoarding":null,"virtual":0,"nonpassenger":0,"depot":0,"ticketZoneBorder":0,"onDemand":1,"activationDate":"2017-04-21"},{"stopId":1547,"stopCode":"02","stopName":"Koziorożca","stopShortName":"1547","stopDesc":"Koziorożca (N/Ż)","subName":"02","date":"2017-04-24","stopLat":54.41995,"stopLon":18.46979,"zoneId":1,"zoneName":"Gdańsk","stopUrl":"","locationType":null,"parentStation":null,"stopTimezone":"","wheelchairBoarding":null,"virtual":0,"nonpassenger":0,"depot":0,"ticketZoneBorder":0,"onDemand":0,"activationDate":"2017-04-21"},{"stopId":1546,"stopCode":"01","stopName":"Koziorożca","stopShortName":"1546","stopDesc":"Koziorożca (N/Ż)","subName":"01","date":"2017-04-24","stopLat":54.41977,"stopLon":18.47077,"zoneId":1,"zoneName":"Gdańsk","stopUrl":"","locationType":null,"parentStation":null,"stopTimezone":"","wheelchairBoarding":null,"virtual":0,"nonpassenger":0,"depot":0,"ticketZoneBorder":0,"onDemand":0,"activationDate":"2017-04-21"},{"stopId":1549,"stopCode":"02","stopName":"Zeusa","stopShortName":"1549","stopDesc":"Zeusa (N/Ż)","subName":"02","date":"2017-04-24","stopLat":54.42274,"stopLon":18.46182,"zoneId":1,"zoneName":"Gdańsk","stopUrl":"","locationType":null,"parentStation":null,"stopTimezone":"","wheelchairBoarding":null,"virtual":0,"nonpassenger":0,"depot":0,"ticketZoneBorder":0,"onDemand":1,"activationDate":"2017-04-21"},{"stopId":1548,"stopCode":"01","stopName":"Zeusa","stopShortName":"1548","stopDesc":"Zeusa (N/Ż)","subName":"01","date":"2017-04-24","stopLat":54.42226,"stopLon":18.46267,"zoneId":1,"zoneName":"Gdańsk","stopUrl":"","locationType":null,"parentStation":null,"stopTimezone":"","wheelchairBoarding":null,"virtual":0,"nonpassenger":0,"depot":0,"ticketZoneBorder":0,"onDemand":1,"activationDate":"2017-04-21"},{"stopId":1545,"stopCode":"01","stopName":"Cmentarz Oliwski","stopShortName":"1545","stopDesc":"Cmentarz Oliwski","subName":"01","date":"2017-04-24","stopLat":54.41354,"stopLon":18.55733,"zoneId":1,"zoneName":"Gdańsk","stopUrl":"","locationType":null,"parentStation":null,"stopTimezone":"","wheelchairBoarding":null,"virtual":0,"nonpassenger":0,"depot":0,"ticketZoneBorder":0,"onDemand":0,"activationDate":"2017-04-21"},{"stopId":1541,"stopCode":"03","stopName":"Brama Oliwska","stopShortName":"1541","stopDesc":"Brama Oliwska (N/Ż)","subName":" ","date":"2017-04-24","stopLat":54.36241,"stopLon":18.64022,"zoneId":1,"zoneName":"Gdańsk","stopUrl":"","locationType":null,"parentStation":null,"stopTimezone":"","wheelchairBoarding":null,"virtual":0,"nonpassenger":0,"depot":0,"ticketZoneBorder":0,"onDemand":1,"activationDate":"2017-04-21"},{"stopId":1540,"stopCode":"04","stopName":"Czyżewskiego","stopShortName":"1540","stopDesc":"Czyżewskiego (N/Ż)","subName":" ","date":"2017-04-24","stopLat":54.42214,"stopLon":18.56199,"zoneId":1,"zoneName":"Gdańsk","stopUrl":"","locationType":null,"parentStation":null,"stopTimezone":"","wheelchairBoarding":null,"virtual":0,"nonpassenger":0,"depot":0,"ticketZoneBorder":1,"onDemand":1,"activationDate":"2017-04-21"},{"stopId":1558,"stopCode":"04","stopName":"Karczemki","stopShortName":"1558","stopDesc":"Karczemki","subName":"04","date":"2017-04-24","stopLat":54.35104,"stopLon":18.51297,"zoneId":1,"zoneName":"Gdańsk","stopUrl":"","locationType":null,"parentStation":null,"stopTimezone":"","wheelchairBoarding":null,"virtual":0,"nonpassenger":0,"depot":0,"ticketZoneBorder":0,"onDemand":0,"activationDate":"2017-04-21"},{"stopId":1554,"stopCode":"02","stopName":"Jelitkowo Kapliczna","stopShortName":"1554","stopDesc":"Jelitkowo Kapliczna","subName":"02","date":"2017-04-24","stopLat":54.4215,"stopLon":18.60155,"zoneId":1,"zoneName":"Gdańsk","stopUrl":"","locationType":null,"parentStation":null,"stopTimezone":"","wheelchairBoarding":null,"virtual":0,"nonpassenger":0,"depot":0,"ticketZoneBorder":0,"onDemand":0,"activationDate":"2017-04-21"},{"stopId":1553,"stopCode":"01","stopName":"Jelitkowo Kapliczna","stopShortName":"1553","stopDesc":"Jelitkowo Kapliczna","subName":"01","date":"2017-04-24","stopLat":54.42201,"stopLon":18.60137,"zoneId":1,"zoneName":"Gdańsk","stopUrl":"","locationType":null,"parentStation":null,"stopTimezone":"","wheelchairBoarding":null,"virtual":0,"nonpassenger":0,"depot":0,"ticketZoneBorder":0,"onDemand":0,"activationDate":"2017-04-21"},{"stopId":1556,"stopCode":"02","stopName":"Pomorska - Kapliczna","stopShortName":"1556","stopDesc":"Pomorska - Kapliczna","subName":"02","date":"2017-04-24","stopLat":54.42376,"stopLon":18.59602,"zoneId":1,"zoneName":"Gdańsk","stopUrl":"","locationType":null,"parentStation":null,"stopTimezone":"","wheelchairBoarding":null,"virtual":0,"nonpassenger":0,"depot":0,"ticketZoneBorder":0,"onDemand":0,"activationDate":"2017-04-21"},{"stopId":1555,"stopCode":"01","stopName":"Pomorska - Kapliczna","stopShortName":"1555","stopDesc":"Pomorska - Kapliczna","subName":"01","date":"2017-04-24","stopLat":54.4239,"stopLon":18.59653,"zoneId":1,"zoneName":"Gdańsk","stopUrl":"","locationType":null,"parentStation":null,"stopTimezone":"","wheelchairBoarding":null,"virtual":0,"nonpassenger":0,"depot":0,"ticketZoneBorder":0,"onDemand":0,"activationDate":"2017-04-21"},{"stopId":1550,"stopCode":"01","stopName":"Konkordii","stopShortName":"1550","stopDesc":"Konkordii (N/Ż)","subName":"01","date":"2017-04-24","stopLat":54.42448,"stopLon":18.45709,"zoneId":1,"zoneName":"Gdańsk","stopUrl":"","locationType":null,"parentStation":null,"stopTimezone":"","wheelchairBoarding":null,"virtual":0,"nonpassenger":0,"depot":0,"ticketZoneBorder":0,"onDemand":1,"activationDate":"2017-04-21"},{"stopId":1552,"stopCode":"01","stopName":"Archikatedra Oliwska","stopShortName":"1552","stopDesc":"Archikatedra Oliwska (N/Ż)","subName":" ","date":"2017-04-24","stopLat":54.41078,"stopLon":18.55705,"zoneId":1,"zoneName":"Gdańsk","stopUrl":"","locationType":null,"parentStation":null,"stopTimezone":"","wheelchairBoarding":null,"virtual":0,"nonpassenger":0,"depot":0,"ticketZoneBorder":0,"onDemand":1,"activationDate":"2017-04-21"},{"stopId":1551,"stopCode":"02","stopName":"Konkordii","stopShortName":"1551","stopDesc":"Konkordii (N/Ż)","subName":"02","date":"2017-04-24","stopLat":54.42452,"stopLon":18.45698,"zoneId":1,"zoneName":"Gdańsk","stopUrl":"","locationType":null,"parentStation":null,"stopTimezone":"","wheelchairBoarding":null,"virtual":0,"nonpassenger":0,"depot":0,"ticketZoneBorder":0,"onDemand":1,"activationDate":"2017-04-21"},{"stopId":1569,"stopCode":"03","stopName":"Barniewicka","stopShortName":"1569","stopDesc":"Barniewicka","subName":"03","date":"2017-04-24","stopLat":54.43518,"stopLon":18.46575,"zoneId":1,"zoneName":"Gdańsk","stopUrl":"","locationType":null,"parentStation":null,"stopTimezone":"","wheelchairBoarding":null,"virtual":0,"nonpassenger":0,"depot":0,"ticketZoneBorder":0,"onDemand":0,"activationDate":"2017-04-21"},{"stopId":1568,"stopCode":"02","stopName":"Montażystów","stopShortName":"1568","stopDesc":"Montażystów","subName":"02","date":"2017-04-24","stopLat":54.35862,"stopLon":18.49779,"zoneId":1,"zoneName":"Gdańsk","stopUrl":"","locationType":null,"parentStation":null,"stopTimezone":"","wheelchairBoarding":null,"virtual":0,"nonpassenger":0,"depot":0,"ticketZoneBorder":0,"onDemand":0,"activationDate":"2017-04-21"},{"stopId":1565,"stopCode":"01","stopName":"Św. Brata Alberta","stopShortName":"1565","stopDesc":"Św. Brata Alberta","subName":"01","date":"2017-04-24","stopLat":54.3558,"stopLon":18.50384,"zoneId":1,"zoneName":"Gdańsk","stopUrl":"","locationType":null,"parentStation":null,"stopTimezone":"","wheelchairBoarding":null,"virtual":0,"nonpassenger":0,"depot":0,"ticketZoneBorder":0,"onDemand":0,"activationDate":"2017-04-21"},{"stopId":1564,"stopCode":"02","stopName":"Maciejkowa","stopShortName":"1564","stopDesc":"Maciejkowa","subName":"02","date":"2017-04-24","stopLat":54.35389,"stopLon":18.5055,"zoneId":1,"zoneName":"Gdańsk","stopUrl":"","locationType":null,"parentStation":null,"stopTimezone":"","wheelchairBoarding":null,"virtual":0,"nonpassenger":0,"depot":0,"ticketZoneBorder":0,"onDemand":0,"activationDate":"2017-04-21"},{"stopId":1567,"stopCode":"","stopName":"Fundamentowa","stopShortName":"1567","stopDesc":"Fundamentowa","subName":" ","date":"2017-04-24","stopLat":54.35671,"stopLon":18.49411,"zoneId":1,"zoneName":"Gdańsk","stopUrl":"","locationType":null,"parentStation":null,"stopTimezone":"","wheelchairBoarding":null,"virtual":0,"nonpassenger":0,"depot":0,"ticketZoneBorder":0,"onDemand":0,"activationDate":"2017-04-21"},{"stopId":1566,"stopCode":"02","stopName":"Św. Brata Alberta","stopShortName":"1566","stopDesc":"Św. Brata Alberta","subName":"02","date":"2017-04-24","stopLat":54.35593,"stopLon":18.50396,"zoneId":1,"zoneName":"Gdańsk","stopUrl":"","locationType":null,"parentStation":null,"stopTimezone":"","wheelchairBoarding":null,"virtual":0,"nonpassenger":0,"depot":0,"ticketZoneBorder":0,"onDemand":0,"activationDate":"2017-04-21"},{"stopId":1561,"stopCode":"01","stopName":"Karczemki Szkoła","stopShortName":"1561","stopDesc":"Karczemki Szkoła","subName":"01","date":"2017-04-24","stopLat":54.3524,"stopLon":18.51104,"zoneId":1,"zoneName":"Gdańsk","stopUrl":"","locationType":null,"parentStation":null,"stopTimezone":"","wheelchairBoarding":null,"virtual":0,"nonpassenger":0,"depot":0,"ticketZoneBorder":0,"onDemand":0,"activationDate":"2017-04-21"},{"stopId":1563,"stopCode":"01","stopName":"Maciejkowa","stopShortName":"1563","stopDesc":"Maciejkowa","subName":"01","date":"2017-04-24","stopLat":54.35385,"stopLon":18.50519,"zoneId":1,"zoneName":"Gdańsk","stopUrl":"","locationType":null,"parentStation":null,"stopTimezone":"","wheelchairBoarding":null,"virtual":0,"nonpassenger":0,"depot":0,"ticketZoneBorder":0,"onDemand":0,"activationDate":"2017-04-21"},{"stopId":1562,"stopCode":"02","stopName":"Karczemki Szkoła","stopShortName":"1562","stopDesc":"Karczemki Szkoła","subName":"02","date":"2017-04-24","stopLat":54.35251,"stopLon":18.51154,"zoneId":1,"zoneName":"Gdańsk","stopUrl":"","locationType":null,"parentStation":null,"stopTimezone":"","wheelchairBoarding":null,"virtual":0,"nonpassenger":0,"depot":0,"ticketZoneBorder":0,"onDemand":0,"activationDate":"2017-04-21"},{"stopId":1507,"stopCode":"02","stopName":"Rynarzewo","stopShortName":"1507","stopDesc":"Rynarzewo (N/Ż)","subName":" ","date":"2017-04-24","stopLat":54.42163,"stopLon":18.53778,"zoneId":1,"zoneName":"Gdańsk","stopUrl":"","locationType":null,"parentStation":null,"stopTimezone":"","wheelchairBoarding":null,"virtual":0,"nonpassenger":0,"depot":0,"ticketZoneBorder":0,"onDemand":1,"activationDate":"2017-04-21"},{"stopId":1506,"stopCode":"01","stopName":"Spacerowa","stopShortName":"1506","stopDesc":"Spacerowa (N/Ż)","subName":" ","date":"2017-04-24","stopLat":54.41071,"stopLon":18.54872,"zoneId":1,"zoneName":"Gdańsk","stopUrl":"","locationType":null,"parentStation":null,"stopTimezone":"","wheelchairBoarding":null,"virtual":0,"nonpassenger":0,"depot":0,"ticketZoneBorder":0,"onDemand":1,"activationDate":"2017-04-21"},{"stopId":1509,"stopCode":"02","stopName":"Osowa - Obwodnica","stopShortName":"1509","stopDesc":"Osowa - Obwodnica","subName":"02","date":"2017-04-24","stopLat":54.42887,"stopLon":18.49604,"zoneId":1,"zoneName":"Gdańsk","stopUrl":"","locationType":null,"parentStation":null,"stopTimezone":"","wheelchairBoarding":null,"virtual":0,"nonpassenger":0,"depot":0,"ticketZoneBorder":0,"onDemand":0,"activationDate":"2017-04-21"},{"stopId":1508,"stopCode":"01","stopName":"Rynarzewo","stopShortName":"1508","stopDesc":"Rynarzewo (N/Ż)","subName":" ","date":"2017-04-24","stopLat":54.42124,"stopLon":18.53879,"zoneId":1,"zoneName":"Gdańsk","stopUrl":"","locationType":null,"parentStation":null,"stopTimezone":"","wheelchairBoarding":null,"virtual":0,"nonpassenger":0,"depot":0,"ticketZoneBorder":0,"onDemand":1,"activationDate":"2017-04-21"},{"stopId":1503,"stopCode":"02","stopName":"Cystersów","stopShortName":"1503","stopDesc":"Cystersów","subName":" ","date":"2017-04-24","stopLat":54.409,"stopLon":18.55554,"zoneId":1,"zoneName":"Gdańsk","stopUrl":"","locationType":null,"parentStation":null,"stopTimezone":"","wheelchairBoarding":null,"virtual":0,"nonpassenger":0,"depot":0,"ticketZoneBorder":0,"onDemand":0,"activationDate":"2017-04-21"},{"stopId":1502,"stopCode":"02","stopName":"Władysława IV","stopShortName":"1502","stopDesc":"Władysława IV","subName":" ","date":"2017-04-24","stopLat":54.39988,"stopLon":18.67514,"zoneId":1,"zoneName":"Gdańsk","stopUrl":"","locationType":null,"parentStation":null,"stopTimezone":"","wheelchairBoarding":null,"virtual":0,"nonpassenger":0,"depot":0,"ticketZoneBorder":0,"onDemand":0,"activationDate":"2017-04-21"},{"stopId":1505,"stopCode":"02","stopName":"Spacerowa","stopShortName":"1505","stopDesc":"Spacerowa (N/Ż)","subName":" ","date":"2017-04-24","stopLat":54.41131,"stopLon":18.54731,"zoneId":1,"zoneName":"Gdańsk","stopUrl":"","locationType":null,"parentStation":null,"stopTimezone":"","wheelchairBoarding":null,"virtual":0,"nonpassenger":0,"depot":0,"ticketZoneBorder":0,"onDemand":1,"activationDate":"2017-04-21"},{"stopId":1504,"stopCode":"01","stopName":"Cystersów","stopShortName":"1504","stopDesc":"Cystersów","subName":" ","date":"2017-04-24","stopLat":54.40876,"stopLon":18.55785,"zoneId":1,"zoneName":"Gdańsk","stopUrl":"","locationType":null,"parentStation":null,"stopTimezone":"","wheelchairBoarding":null,"virtual":0,"nonpassenger":0,"depot":0,"ticketZoneBorder":0,"onDemand":0,"activationDate":"2017-04-21"},{"stopId":1501,"stopCode":"01","stopName":"Zajezdnia NOWY PORT","stopShortName":"1501","stopDesc":"Zajezdnia Nowy Port","subName":"01","date":"2017-04-24","stopLat":54.3979,"stopLon":18.67333,"zoneId":1,"zoneName":"Gdańsk","stopUrl":"","locationType":null,"parentStation":null,"stopTimezone":"","wheelchairBoarding":null,"virtual":0,"nonpassenger":0,"depot":0,"ticketZoneBorder":0,"onDemand":0,"activationDate":"2017-04-21"},{"stopId":1500,"stopCode":"02","stopName":"Wyzwolenia","stopShortName":"1500","stopDesc":"Wyzwolenia","subName":" ","date":"2017-04-24","stopLat":54.39998,"stopLon":18.66241,"zoneId":1,"zoneName":"Gdańsk","stopUrl":"","locationType":null,"parentStation":null,"stopTimezone":"","wheelchairBoarding":null,"virtual":0,"nonpassenger":0,"depot":0,"ticketZoneBorder":0,"onDemand":0,"activationDate":"2017-04-21"},{"stopId":1518,"stopCode":"01","stopName":"Niedziałkowskiego","stopShortName":"1518","stopDesc":"Niedziałkowskiego","subName":"01","date":"2017-04-24","stopLat":54.43129,"stopLon":18.4632,"zoneId":1,"zoneName":"Gdańsk","stopUrl":"","locationType":null,"parentStation":null,"stopTimezone":"","wheelchairBoarding":null,"virtual":0,"nonpassenger":0,"depot":0,"ticketZoneBorder":0,"onDemand":0,"activationDate":"2017-04-21"},{"stopId":1517,"stopCode":"02","stopName":"Niedziałkowskiego","stopShortName":"1517","stopDesc":"Niedziałkowskiego","subName":"01","date":"2017-04-24","stopLat":54.43028,"stopLon":18.46199,"zoneId":1,"zoneName":"Gdańsk","stopUrl":"","locationType":null,"parentStation":null,"stopTimezone":"","wheelchairBoarding":null,"virtual":0,"nonpassenger":0,"depot":0,"ticketZoneBorder":0,"onDemand":0,"activationDate":"2017-04-21"},{"stopId":1519,"stopCode":"02","stopName":"Biwakowa","stopShortName":"1519","stopDesc":"Biwakowa","subName":"02","date":"2017-04-24","stopLat":54.42705,"stopLon":18.45987,"zoneId":1,"zoneName":"Gdańsk","stopUrl":"","locationType":null,"parentStation":null,"stopTimezone":"","wheelchairBoarding":null,"virtual":0,"nonpassenger":0,"depot":0,"ticketZoneBorder":0,"onDemand":0,"activationDate":"2017-04-21"},{"stopId":1514,"stopCode":"01","stopName":"Nowa","stopShortName":"1514","stopDesc":"Nowa","subName":"01","date":"2017-04-24","stopLat":54.43178,"stopLon":18.47235,"zoneId":1,"zoneName":"Gdańsk","stopUrl":"","locationType":null,"parentStation":null,"stopTimezone":"","wheelchairBoarding":null,"virtual":0,"nonpassenger":0,"depot":0,"ticketZoneBorder":0,"onDemand":0,"activationDate":"2017-04-21"},{"stopId":1513,"stopCode":"02","stopName":"Nowa","stopShortName":"1513","stopDesc":"Nowa","subName":"02","date":"2017-04-24","stopLat":54.43251,"stopLon":18.47132,"zoneId":1,"zoneName":"Gdańsk","stopUrl":"","locationType":null,"parentStation":null,"stopTimezone":"","wheelchairBoarding":null,"virtual":0,"nonpassenger":0,"depot":0,"ticketZoneBorder":0,"onDemand":0,"activationDate":"2017-04-21"},{"stopId":1516,"stopCode":"01","stopName":"Barniewicka","stopShortName":"1516","stopDesc":"Barniewicka","subName":"01","date":"2017-04-24","stopLat":54.43421,"stopLon":18.46748,"zoneId":1,"zoneName":"Gdańsk","stopUrl":"","locationType":null,"parentStation":null,"stopTimezone":"","wheelchairBoarding":null,"virtual":0,"nonpassenger":0,"depot":0,"ticketZoneBorder":0,"onDemand":0,"activationDate":"2017-04-21"},{"stopId":1515,"stopCode":"02","stopName":"Barniewicka","stopShortName":"1515","stopDesc":"Barniewicka","subName":"02","date":"2017-04-24","stopLat":54.43421,"stopLon":18.46608,"zoneId":1,"zoneName":"Gdańsk","stopUrl":"","locationType":null,"parentStation":null,"stopTimezone":"","wheelchairBoarding":null,"virtual":0,"nonpassenger":0,"depot":0,"ticketZoneBorder":0,"onDemand":0,"activationDate":"2017-04-21"},{"stopId":1510,"stopCode":"01","stopName":"Osowa - Obwodnica","stopShortName":"1510","stopDesc":"Osowa - Obwodnica","subName":"01","date":"2017-04-24","stopLat":54.42872,"stopLon":18.49573,"zoneId":1,"zoneName":"Gdańsk","stopUrl":"","locationType":null,"parentStation":null,"stopTimezone":"","wheelchairBoarding":null,"virtual":0,"nonpassenger":0,"depot":0,"ticketZoneBorder":0,"onDemand":0,"activationDate":"2017-04-21"},{"stopId":1512,"stopCode":"01","stopName":"Sopocka","stopShortName":"1512","stopDesc":"Sopocka","subName":"01","date":"2017-04-24","stopLat":54.42981,"stopLon":18.47842,"zoneId":1,"zoneName":"Gdańsk","stopUrl":"","locationType":null,"parentStation":null,"stopTimezone":"","wheelchairBoarding":null,"virtual":0,"nonpassenger":0,"depot":0,"ticketZoneBorder":0,"onDemand":0,"activationDate":"2017-04-21"},{"stopId":1511,"stopCode":"02","stopName":"Sopocka","stopShortName":"1511","stopDesc":"Sopocka","subName":"02","date":"2017-04-24","stopLat":54.43004,"stopLon":18.47634,"zoneId":1,"zoneName":"Gdańsk","stopUrl":"","locationType":null,"parentStation":null,"stopTimezone":"","wheelchairBoarding":null,"virtual":0,"nonpassenger":0,"depot":0,"ticketZoneBorder":0,"onDemand":0,"activationDate":"2017-04-21"},{"stopId":1529,"stopCode":"02","stopName":"Poznańska","stopShortName":"1529","stopDesc":"Poznańska (N/Ż)","subName":" ","date":"2017-04-24","stopLat":54.41437,"stopLon":18.57934,"zoneId":1,"zoneName":"Gdańsk","stopUrl":"","locationType":null,"parentStation":null,"stopTimezone":"","wheelchairBoarding":null,"virtual":0,"nonpassenger":0,"depot":0,"ticketZoneBorder":0,"onDemand":1,"activationDate":"2017-04-21"},{"stopId":1528,"stopCode":"03","stopName":"Piastowska","stopShortName":"1528","stopDesc":"Piastowska","subName":"03","date":"2017-04-24","stopLat":54.41607,"stopLon":18.58803,"zoneId":1,"zoneName":"Gdańsk","stopUrl":"","locationType":null,"parentStation":null,"stopTimezone":"","wheelchairBoarding":null,"virtual":0,"nonpassenger":0,"depot":0,"ticketZoneBorder":0,"onDemand":0,"activationDate":"2017-04-21"},{"stopId":1525,"stopCode":"02","stopName":"Tysiąclecia","stopShortName":"1525","stopDesc":"Tysiąclecia","subName":"02","date":"2017-04-24","stopLat":54.41737,"stopLon":18.5921,"zoneId":1,"zoneName":"Gdańsk","stopUrl":"","locationType":null,"parentStation":null,"stopTimezone":"","wheelchairBoarding":null,"virtual":0,"nonpassenger":0,"depot":0,"ticketZoneBorder":0,"onDemand":0,"activationDate":"2017-04-21"},{"stopId":1524,"stopCode":"01","stopName":"Nowy Świat","stopShortName":"1524","stopDesc":"Nowy Świat","subName":"01","date":"2017-04-24","stopLat":54.41822,"stopLon":18.45017,"zoneId":1,"zoneName":"Gdańsk","stopUrl":"","locationType":null,"parentStation":null,"stopTimezone":"","wheelchairBoarding":null,"virtual":0,"nonpassenger":0,"depot":0,"ticketZoneBorder":0,"onDemand":0,"activationDate":"2017-04-21"},{"stopId":1527,"stopCode":"04","stopName":"Piastowska","stopShortName":"1527","stopDesc":"Piastowska","subName":"04","date":"2017-04-24","stopLat":54.4161,"stopLon":18.58596,"zoneId":1,"zoneName":"Gdańsk","stopUrl":"","locationType":null,"parentStation":null,"stopTimezone":"","wheelchairBoarding":null,"virtual":0,"nonpassenger":0,"depot":0,"ticketZoneBorder":0,"onDemand":0,"activationDate":"2017-04-21"},{"stopId":1526,"stopCode":"01","stopName":"Tysiąclecia","stopShortName":"1526","stopDesc":"Tysiąclecia","subName":"01","date":"2017-04-24","stopLat":54.41732,"stopLon":18.59327,"zoneId":1,"zoneName":"Gdańsk","stopUrl":"","locationType":null,"parentStation":null,"stopTimezone":"","wheelchairBoarding":null,"virtual":0,"nonpassenger":0,"depot":0,"ticketZoneBorder":0,"onDemand":0,"activationDate":"2017-04-21"},{"stopId":1521,"stopCode":"02","stopName":"Osowa PKP","stopShortName":"1521","stopDesc":"Osowa PKP","subName":"02","date":"2017-04-24","stopLat":54.42044,"stopLon":18.45231,"zoneId":1,"zoneName":"Gdańsk","stopUrl":"","locationType":null,"parentStation":null,"stopTimezone":"","wheelchairBoarding":null,"virtual":0,"nonpassenger":0,"depot":0,"ticketZoneBorder":0,"onDemand":0,"activationDate":"2017-04-21"},{"stopId":1520,"stopCode":"01","stopName":"Biwakowa","stopShortName":"1520","stopDesc":"Biwakowa","subName":"01","date":"2017-04-24","stopLat":54.42815,"stopLon":18.46094,"zoneId":1,"zoneName":"Gdańsk","stopUrl":"","locationType":null,"parentStation":null,"stopTimezone":"","wheelchairBoarding":null,"virtual":0,"nonpassenger":0,"depot":0,"ticketZoneBorder":0,"onDemand":0,"activationDate":"2017-04-21"},{"stopId":1523,"stopCode":"02","stopName":"Nowy Świat","stopShortName":"1523","stopDesc":"Nowy Świat","subName":"02","date":"2017-04-24","stopLat":54.41823,"stopLon":18.45,"zoneId":1,"zoneName":"Gdańsk","stopUrl":"","locationType":null,"parentStation":null,"stopTimezone":"","wheelchairBoarding":null,"virtual":0,"nonpassenger":0,"depot":0,"ticketZoneBorder":0,"onDemand":0,"activationDate":"2017-04-21"},{"stopId":1522,"stopCode":"01","stopName":"Osowa PKP","stopShortName":"1522","stopDesc":"Osowa PKP","subName":"01","date":"2017-04-24","stopLat":54.42137,"stopLon":18.4535,"zoneId":1,"zoneName":"Gdańsk","stopUrl":"","locationType":null,"parentStation":null,"stopTimezone":"","wheelchairBoarding":null,"virtual":0,"nonpassenger":0,"depot":0,"ticketZoneBorder":0,"onDemand":0,"activationDate":"2017-04-21"},{"stopId":1606,"stopCode":"01","stopName":"Łanowa II","stopShortName":"1606","stopDesc":"Łanowa II (N/Ż)","subName":" ","date":"2017-04-24","stopLat":54.32615,"stopLon":18.67281,"zoneId":1,"zoneName":"Gdańsk","stopUrl":"","locationType":null,"parentStation":null,"stopTimezone":"","wheelchairBoarding":null,"virtual":0,"nonpassenger":0,"depot":0,"ticketZoneBorder":0,"onDemand":1,"activationDate":"2017-04-21"},{"stopId":1608,"stopCode":"03","stopName":"Zajezdnia","stopShortName":"1608","stopDesc":"Zajezdnia (N/Ż)","subName":"03","date":"2017-04-24","stopLat":54.38852,"stopLon":18.58167,"zoneId":1,"zoneName":"Gdańsk","stopUrl":"","locationType":null,"parentStation":null,"stopTimezone":"","wheelchairBoarding":null,"virtual":0,"nonpassenger":0,"depot":0,"ticketZoneBorder":0,"onDemand":0,"activationDate":"2017-04-21"},{"stopId":1607,"stopCode":"04","stopName":"Zajezdnia","stopShortName":"1607","stopDesc":"Zajezdnia (N/Ż)","subName":"04","date":"2017-04-24","stopLat":54.38877,"stopLon":18.58099,"zoneId":1,"zoneName":"Gdańsk","stopUrl":"","locationType":null,"parentStation":null,"stopTimezone":"","wheelchairBoarding":null,"virtual":0,"nonpassenger":0,"depot":0,"ticketZoneBorder":0,"onDemand":0,"activationDate":"2017-04-21"},{"stopId":1602,"stopCode":"05","stopName":"Kościuszki","stopShortName":"1602","stopDesc":"Kościuszki (N/Ż)","subName":"05","date":"2017-04-24","stopLat":54.38829,"stopLon":18.62261,"zoneId":1,"zoneName":"Gdańsk","stopUrl":"","locationType":null,"parentStation":null,"stopTimezone":"","wheelchairBoarding":null,"virtual":0,"nonpassenger":0,"depot":0,"ticketZoneBorder":0,"onDemand":0,"activationDate":"2017-04-21"},{"stopId":1601,"stopCode":"02","stopName":"Mostek","stopShortName":"1601","stopDesc":"Mostek ","subName":"02","date":"2017-04-24","stopLat":54.34905,"stopLon":18.67436,"zoneId":1,"zoneName":"Gdańsk","stopUrl":"","locationType":null,"parentStation":null,"stopTimezone":"","wheelchairBoarding":null,"virtual":0,"nonpassenger":0,"depot":0,"ticketZoneBorder":0,"onDemand":0,"activationDate":"2017-04-21"},{"stopId":1600,"stopCode":"03","stopName":"Uniwersytet Medyczny","stopShortName":"1600","stopDesc":"Uniwersytet Medyczny (N/Ż)","subName":" ","date":"2017-04-24","stopLat":54.36765,"stopLon":18.63291,"zoneId":1,"zoneName":"Gdańsk","stopUrl":"","locationType":null,"parentStation":null,"stopTimezone":"","wheelchairBoarding":null,"virtual":0,"nonpassenger":0,"depot":0,"ticketZoneBorder":0,"onDemand":0,"activationDate":"2017-04-21"},{"stopId":31521,"stopCode":"02","stopName":"Osowa PKP","stopShortName":"1521","stopDesc":"Osowa - Obwodnica","subName":"1521","date":"2017-04-24","stopLat":54.42881,"stopLon":18.49608,"zoneId":1,"zoneName":"Gdańsk","stopUrl":"","locationType":null,"parentStation":null,"stopTimezone":"","wheelchairBoarding":null,"virtual":0,"nonpassenger":0,"depot":0,"ticketZoneBorder":0,"onDemand":0,"activationDate":"2017-04-21"},{"stopId":31522,"stopCode":"01","stopName":"Osowa PKP","stopShortName":"1522","stopDesc":"Sopocka","subName":"1522","date":"2017-04-24","stopLat":54.43003,"stopLon":18.47617,"zoneId":1,"zoneName":"Gdańsk","stopUrl":"","locationType":null,"parentStation":null,"stopTimezone":"","wheelchairBoarding":null,"virtual":0,"nonpassenger":0,"depot":0,"ticketZoneBorder":0,"onDemand":0,"activationDate":"2017-04-21"},{"stopId":31523,"stopCode":"02","stopName":"Nowy Świat","stopShortName":"1523","stopDesc":"Nowa","subName":"1523","date":"2017-04-24","stopLat":54.43251,"stopLon":18.47127,"zoneId":1,"zoneName":"Gdańsk","stopUrl":"","locationType":null,"parentStation":null,"stopTimezone":"","wheelchairBoarding":null,"virtual":0,"nonpassenger":0,"depot":0,"ticketZoneBorder":0,"onDemand":0,"activationDate":"2017-04-21"},{"stopId":31524,"stopCode":"01","stopName":"Nowy Świat","stopShortName":"1524","stopDesc":"Barniewicka","subName":"1524","date":"2017-04-24","stopLat":54.43517,"stopLon":18.46574,"zoneId":1,"zoneName":"Gdańsk","stopUrl":"","locationType":null,"parentStation":null,"stopTimezone":"","wheelchairBoarding":null,"virtual":0,"nonpassenger":0,"depot":0,"ticketZoneBorder":0,"onDemand":0,"activationDate":"2017-04-21"},{"stopId":31520,"stopCode":"01","stopName":"Biwakowa","stopShortName":"1520","stopDesc":"Rynarzewo","subName":"1520","date":"2017-04-24","stopLat":54.42185,"stopLon":18.53685,"zoneId":1,"zoneName":"Gdańsk","stopUrl":"","locationType":null,"parentStation":null,"stopTimezone":"","wheelchairBoarding":null,"virtual":0,"nonpassenger":0,"depot":0,"ticketZoneBorder":0,"onDemand":0,"activationDate":"2017-04-21"},{"stopId":31529,"stopCode":"02","stopName":"Poznańska","stopShortName":"1529","stopDesc":"Port Lotniczy Gdańsk","subName":"1529","date":"2017-04-24","stopLat":54.38287,"stopLon":18.46778,"zoneId":1,"zoneName":"Gdańsk","stopUrl":"","locationType":null,"parentStation":null,"stopTimezone":"","wheelchairBoarding":null,"virtual":0,"nonpassenger":0,"depot":0,"ticketZoneBorder":0,"onDemand":1,"activationDate":"2017-04-21"},{"stopId":31525,"stopCode":"02","stopName":"Tysiąclecia","stopShortName":"1525","stopDesc":"Iławska","subName":"1525","date":"2017-04-24","stopLat":54.43959,"stopLon":18.45834,"zoneId":1,"zoneName":"Gdańsk","stopUrl":"","locationType":null,"parentStation":null,"stopTimezone":"","wheelchairBoarding":null,"virtual":0,"nonpassenger":0,"depot":0,"ticketZoneBorder":0,"onDemand":0,"activationDate":"2017-04-21"},{"stopId":31526,"stopCode":"01","stopName":"Tysiąclecia","stopShortName":"1526","stopDesc":"Myśliborska","subName":"1526","date":"2017-04-24","stopLat":54.44188,"stopLon":18.4513,"zoneId":1,"zoneName":"Gdańsk","stopUrl":"","locationType":null,"parentStation":null,"stopTimezone":"","wheelchairBoarding":null,"virtual":0,"nonpassenger":0,"depot":0,"ticketZoneBorder":0,"onDemand":0,"activationDate":"2017-04-21"},{"stopId":31527,"stopCode":"04","stopName":"Piastowska","stopShortName":"1527","stopDesc":"Chwaszczyno - Oliwska","subName":"1527","date":"2017-04-24","stopLat":54.44229,"stopLon":18.44486,"zoneId":1,"zoneName":"Gdańsk","stopUrl":"","locationType":null,"parentStation":null,"stopTimezone":"","wheelchairBoarding":null,"virtual":0,"nonpassenger":0,"depot":0,"ticketZoneBorder":0,"onDemand":0,"activationDate":"2017-04-21"},{"stopId":31528,"stopCode":"03","stopName":"Piastowska","stopShortName":"1528","stopDesc":"Chwaszczyno - Szmaragdowa","subName":"1528","date":"2017-04-24","stopLat":54.44266,"stopLon":18.43074,"zoneId":1,"zoneName":"Gdańsk","stopUrl":"","locationType":null,"parentStation":null,"stopTimezone":"","wheelchairBoarding":null,"virtual":0,"nonpassenger":0,"depot":0,"ticketZoneBorder":0,"onDemand":0,"activationDate":"2017-04-21"},{"stopId":31530,"stopCode":"01","stopName":"Poznańska","stopShortName":"1530","stopDesc":"Agrarna","subName":"1530","date":"2017-04-24","stopLat":54.3768,"stopLon":18.50754,"zoneId":1,"zoneName":"Gdańsk","stopUrl":"","locationType":null,"parentStation":null,"stopTimezone":"","wheelchairBoarding":null,"virtual":0,"nonpassenger":0,"depot":0,"ticketZoneBorder":0,"onDemand":1,"activationDate":"2017-04-21"},{"stopId":31531,"stopCode":"02","stopName":"Droszyńskiego","stopShortName":"1531","stopDesc":"Agrarna","subName":"1531","date":"2017-04-24","stopLat":54.37624,"stopLon":18.5098,"zoneId":1,"zoneName":"Gdańsk","stopUrl":"","locationType":null,"parentStation":null,"stopTimezone":"","wheelchairBoarding":null,"virtual":0,"nonpassenger":0,"depot":0,"ticketZoneBorder":0,"onDemand":0,"activationDate":"2017-04-21"},{"stopId":31539,"stopCode":"02","stopName":"Matarnia PKM","stopShortName":"1539","stopDesc":"Firoga","subName":"1539","date":"2017-04-24","stopLat":54.38094,"stopLon":18.48234,"zoneId":1,"zoneName":"Gdańsk","stopUrl":"","locationType":null,"parentStation":null,"stopTimezone":"","wheelchairBoarding":null,"virtual":0,"nonpassenger":0,"depot":0,"ticketZoneBorder":0,"onDemand":0,"activationDate":"2017-04-21"},{"stopId":31501,"stopCode":"01","stopName":"Zajezdnia NOWY PORT","stopShortName":"1501","stopDesc":"Chwaszczyno - Szmaragdowa","subName":"1501","date":"2017-04-24","stopLat":54.4426,"stopLon":18.43195,"zoneId":1,"zoneName":"Gdańsk","stopUrl":"","locationType":null,"parentStation":null,"stopTimezone":"","wheelchairBoarding":null,"virtual":0,"nonpassenger":0,"depot":0,"ticketZoneBorder":0,"onDemand":0,"activationDate":"2017-04-21"},{"stopId":31502,"stopCode":"02","stopName":"Władysława IV","stopShortName":"1502","stopDesc":"Chwaszczyno - Oliwska","subName":"1502","date":"2017-04-24","stopLat":54.44211,"stopLon":18.44561,"zoneId":1,"zoneName":"Gdańsk","stopUrl":"","locationType":null,"parentStation":null,"stopTimezone":"","wheelchairBoarding":null,"virtual":0,"nonpassenger":0,"depot":0,"ticketZoneBorder":0,"onDemand":0,"activationDate":"2017-04-21"},{"stopId":31507,"stopCode":"02","stopName":"Rynarzewo","stopShortName":"1507","stopDesc":"Sopocka","subName":"1507","date":"2017-04-24","stopLat":54.42977,"stopLon":18.47841,"zoneId":1,"zoneName":"Gdańsk","stopUrl":"","locationType":null,"parentStation":null,"stopTimezone":"","wheelchairBoarding":null,"virtual":0,"nonpassenger":0,"depot":0,"ticketZoneBorder":0,"onDemand":1,"activationDate":"2017-04-21"},{"stopId":31503,"stopCode":"02","stopName":"Cystersów","stopShortName":"1503","stopDesc":"Myśliborska","subName":"1503","date":"2017-04-24","stopLat":54.44169,"stopLon":18.45264,"zoneId":1,"zoneName":"Gdańsk","stopUrl":"","locationType":null,"parentStation":null,"stopTimezone":"","wheelchairBoarding":null,"virtual":0,"nonpassenger":0,"depot":0,"ticketZoneBorder":0,"onDemand":0,"activationDate":"2017-04-21"},{"stopId":31504,"stopCode":"01","stopName":"Cystersów","stopShortName":"1504","stopDesc":"Iławska","subName":"1504","date":"2017-04-24","stopLat":54.43917,"stopLon":18.45914,"zoneId":1,"zoneName":"Gdańsk","stopUrl":"","locationType":null,"parentStation":null,"stopTimezone":"","wheelchairBoarding":null,"virtual":0,"nonpassenger":0,"depot":0,"ticketZoneBorder":0,"onDemand":0,"activationDate":"2017-04-21"},{"stopId":31505,"stopCode":"02","stopName":"Spacerowa","stopShortName":"1505","stopDesc":"Barniewicka","subName":"1505","date":"2017-04-24","stopLat":54.43413,"stopLon":18.46756,"zoneId":1,"zoneName":"Gdańsk","stopUrl":"","locationType":null,"parentStation":null,"stopTimezone":"","wheelchairBoarding":null,"virtual":0,"nonpassenger":0,"depot":0,"ticketZoneBorder":0,"onDemand":1,"activationDate":"2017-04-21"},{"stopId":31506,"stopCode":"01","stopName":"Spacerowa","stopShortName":"1506","stopDesc":"Nowa","subName":"1506","date":"2017-04-24","stopLat":54.43176,"stopLon":18.47241,"zoneId":1,"zoneName":"Gdańsk","stopUrl":"","locationType":null,"parentStation":null,"stopTimezone":"","wheelchairBoarding":null,"virtual":0,"nonpassenger":0,"depot":0,"ticketZoneBorder":0,"onDemand":1,"activationDate":"2017-04-21"},{"stopId":31510,"stopCode":"01","stopName":"Osowa - Obwodnica","stopShortName":"1510","stopDesc":"Osowa - Obwodnica","subName":"1510","date":"2017-04-24","stopLat":54.4287,"stopLon":18.49576,"zoneId":1,"zoneName":"Gdańsk","stopUrl":"","locationType":null,"parentStation":null,"stopTimezone":"","wheelchairBoarding":null,"virtual":0,"nonpassenger":0,"depot":0,"ticketZoneBorder":0,"onDemand":0,"activationDate":"2017-04-21"},{"stopId":31511,"stopCode":"02","stopName":"Sopocka","stopShortName":"1511","stopDesc":"Rynarzewo","subName":"1511","date":"2017-04-24","stopLat":54.42137,"stopLon":18.53835,"zoneId":1,"zoneName":"Gdańsk","stopUrl":"","locationType":null,"parentStation":null,"stopTimezone":"","wheelchairBoarding":null,"virtual":0,"nonpassenger":0,"depot":0,"ticketZoneBorder":0,"onDemand":0,"activationDate":"2017-04-21"},{"stopId":31513,"stopCode":"02","stopName":"Nowa","stopShortName":"1513","stopDesc":"Cystersów","subName":"1513","date":"2017-04-24","stopLat":54.40871,"stopLon":18.55795,"zoneId":1,"zoneName":"Gdańsk","stopUrl":"","locationType":null,"parentStation":null,"stopTimezone":"","wheelchairBoarding":null,"virtual":0,"nonpassenger":0,"depot":0,"ticketZoneBorder":0,"onDemand":0,"activationDate":"2017-04-21"},{"stopId":31514,"stopCode":"01","stopName":"Nowa","stopShortName":"1514","stopDesc":"Oliwa - Pętla Tramwajowa","subName":"1514","date":"2017-04-24","stopLat":54.4101,"stopLon":18.5656,"zoneId":1,"zoneName":"Gdańsk","stopUrl":"","locationType":null,"parentStation":null,"stopTimezone":"","wheelchairBoarding":null,"virtual":0,"nonpassenger":0,"depot":0,"ticketZoneBorder":0,"onDemand":0,"activationDate":"2017-04-21"},{"stopId":31515,"stopCode":"02","stopName":"Barniewicka","stopShortName":"1515","stopDesc":"Oliwa - Pętla Tramwajowa","subName":"1515","date":"2017-04-24","stopLat":54.40965,"stopLon":18.56757,"zoneId":1,"zoneName":"Gdańsk","stopUrl":"","locationType":null,"parentStation":null,"stopTimezone":"","wheelchairBoarding":null,"virtual":0,"nonpassenger":0,"depot":0,"ticketZoneBorder":0,"onDemand":0,"activationDate":"2017-04-21"},{"stopId":31516,"stopCode":"01","stopName":"Barniewicka","stopShortName":"1516","stopDesc":"Oliwa - Pętla Tramwajowa","subName":"1516","date":"2017-04-24","stopLat":54.40923,"stopLon":18.56701,"zoneId":1,"zoneName":"Gdańsk","stopUrl":"","locationType":null,"parentStation":null,"stopTimezone":"","wheelchairBoarding":null,"virtual":0,"nonpassenger":0,"depot":0,"ticketZoneBorder":0,"onDemand":0,"activationDate":"2017-04-21"},{"stopId":31517,"stopCode":"02","stopName":"Niedziałkowskiego","stopShortName":"1517","stopDesc":"Cystersów","subName":"1517","date":"2017-04-24","stopLat":54.40901,"stopLon":18.55551,"zoneId":1,"zoneName":"Gdańsk","stopUrl":"","locationType":null,"parentStation":null,"stopTimezone":"","wheelchairBoarding":null,"virtual":0,"nonpassenger":0,"depot":0,"ticketZoneBorder":0,"onDemand":0,"activationDate":"2017-04-21"},{"stopId":31543,"stopCode":null,"stopName":null,"stopShortName":"1543","stopDesc":"Spacerowa","subName":"1543","date":"2017-04-24","stopLat":54.41069,"stopLon":18.54886,"zoneId":null,"zoneName":null,"stopUrl":"","locationType":null,"parentStation":null,"stopTimezone":"","wheelchairBoarding":null,"virtual":null,"nonpassenger":null,"depot":null,"ticketZoneBorder":null,"onDemand":null,"activationDate":"2017-04-21"},{"stopId":31540,"stopCode":"04","stopName":"Czyżewskiego","stopShortName":"1540","stopDesc":"Firoga","subName":"1540","date":"2017-04-24","stopLat":54.37979,"stopLon":18.48326,"zoneId":1,"zoneName":"Gdańsk","stopUrl":"","locationType":null,"parentStation":null,"stopTimezone":"","wheelchairBoarding":null,"virtual":0,"nonpassenger":0,"depot":0,"ticketZoneBorder":1,"onDemand":1,"activationDate":"2017-04-21"},{"stopId":1692,"stopCode":"04","stopName":"Sucharskiego ","stopShortName":"1692","stopDesc":"Sucharskiego","subName":" ","date":"2017-04-24","stopLat":54.35959,"stopLon":18.69087,"zoneId":1,"zoneName":"Gdańsk","stopUrl":"","locationType":null,"parentStation":null,"stopTimezone":"","wheelchairBoarding":null,"virtual":0,"nonpassenger":0,"depot":0,"ticketZoneBorder":0,"onDemand":0,"activationDate":"2017-04-21"},{"stopId":1657,"stopCode":"02","stopName":"Świbnieńska II","stopShortName":"1657","stopDesc":"Świbnieńska II (N/Ż)","subName":" ","date":"2017-04-24","stopLat":54.32587,"stopLon":18.93223,"zoneId":1,"zoneName":"Gdańsk","stopUrl":"","locationType":null,"parentStation":null,"stopTimezone":"","wheelchairBoarding":null,"virtual":0,"nonpassenger":0,"depot":0,"ticketZoneBorder":0,"onDemand":1,"activationDate":"2017-04-21"},{"stopId":1656,"stopCode":"01","stopName":"Świbnieńska II","stopShortName":"1656","stopDesc":"Świbnieńska II (N/Ż)","subName":" ","date":"2017-04-24","stopLat":54.32619,"stopLon":18.93246,"zoneId":1,"zoneName":"Gdańsk","stopUrl":"","locationType":null,"parentStation":null,"stopTimezone":"","wheelchairBoarding":null,"virtual":0,"nonpassenger":0,"depot":0,"ticketZoneBorder":0,"onDemand":1,"activationDate":"2017-04-21"},{"stopId":1659,"stopCode":"02","stopName":"Bysewo","stopShortName":"1659","stopDesc":"Bysewo","subName":" ","date":"2017-04-24","stopLat":54.37394,"stopLon":18.46263,"zoneId":1,"zoneName":"Gdańsk","stopUrl":"","locationType":null,"parentStation":null,"stopTimezone":"","wheelchairBoarding":null,"virtual":0,"nonpassenger":0,"depot":0,"ticketZoneBorder":0,"onDemand":0,"activationDate":"2017-04-21"},{"stopId":1658,"stopCode":"01","stopName":"Bysewo","stopShortName":"1658","stopDesc":"Bysewo","subName":" ","date":"2017-04-24","stopLat":54.37374,"stopLon":18.46229,"zoneId":1,"zoneName":"Gdańsk","stopUrl":"","locationType":null,"parentStation":null,"stopTimezone":"","wheelchairBoarding":null,"virtual":0,"nonpassenger":0,"depot":0,"ticketZoneBorder":0,"onDemand":0,"activationDate":"2017-04-21"},{"stopId":1653,"stopCode":"02","stopName":"Drzewieckiego","stopShortName":"1653","stopDesc":"Drzewieckiego (N/Ż)","subName":"02","date":"2017-04-24","stopLat":54.39498,"stopLon":18.61318,"zoneId":1,"zoneName":"Gdańsk","stopUrl":"","locationType":null,"parentStation":null,"stopTimezone":"","wheelchairBoarding":null,"virtual":0,"nonpassenger":0,"depot":0,"ticketZoneBorder":0,"onDemand":0,"activationDate":"2017-04-21"},{"stopId":1652,"stopCode":"03","stopName":"Wyspiańskiego","stopShortName":"1652","stopDesc":"Wyspiańskiego (N/Ż)","subName":" ","date":"2017-04-24","stopLat":54.37681,"stopLon":18.62359,"zoneId":1,"zoneName":"Gdańsk","stopUrl":"","locationType":null,"parentStation":null,"stopTimezone":"","wheelchairBoarding":null,"virtual":0,"nonpassenger":0,"depot":0,"ticketZoneBorder":0,"onDemand":0,"activationDate":"2017-04-21"},{"stopId":1655,"stopCode":"04","stopName":"Mickiewicza","stopShortName":"1655","stopDesc":"Mickiewicza (N/Ż)","subName":"04","date":"2017-04-24","stopLat":54.38364,"stopLon":18.62167,"zoneId":1,"zoneName":"Gdańsk","stopUrl":"","locationType":null,"parentStation":null,"stopTimezone":"","wheelchairBoarding":null,"virtual":0,"nonpassenger":0,"depot":0,"ticketZoneBorder":0,"onDemand":0,"activationDate":"2017-04-21"},{"stopId":1654,"stopCode":"05","stopName":"Mickiewicza","stopShortName":"1654","stopDesc":"Mickiewicza (N/Ż)","subName":"07","date":"2017-04-24","stopLat":54.38366,"stopLon":18.62209,"zoneId":1,"zoneName":"Gdańsk","stopUrl":"","locationType":null,"parentStation":null,"stopTimezone":"","wheelchairBoarding":null,"virtual":0,"nonpassenger":0,"depot":0,"ticketZoneBorder":0,"onDemand":0,"activationDate":"2017-04-21"},{"stopId":1651,"stopCode":"04","stopName":"Korczaka","stopShortName":"1651","stopDesc":"Korczaka (N/Ż)","subName":"04","date":"2017-04-24","stopLat":54.39871,"stopLon":18.60985,"zoneId":1,"zoneName":"Gdańsk","stopUrl":"","locationType":null,"parentStation":null,"stopTimezone":"","wheelchairBoarding":null,"virtual":0,"nonpassenger":0,"depot":0,"ticketZoneBorder":0,"onDemand":1,"activationDate":"2017-04-21"},{"stopId":1650,"stopCode":"03","stopName":"Hallera - Baza ZKM","stopShortName":"1650","stopDesc":"Grudziądzka","subName":"04","date":"2017-04-24","stopLat":54.39758,"stopLon":18.62207,"zoneId":1,"zoneName":"Gdańsk","stopUrl":"","locationType":null,"parentStation":null,"stopTimezone":"","wheelchairBoarding":null,"virtual":0,"nonpassenger":0,"depot":0,"ticketZoneBorder":0,"onDemand":0,"activationDate":"2017-04-21"},{"stopId":1668,"stopCode":"01","stopName":"Górskiego","stopShortName":"1668","stopDesc":"Górskiego","subName":" ","date":"2017-04-24","stopLat":54.42006,"stopLon":18.56527,"zoneId":1,"zoneName":"Gdańsk","stopUrl":"","locationType":null,"parentStation":null,"stopTimezone":"","wheelchairBoarding":null,"virtual":0,"nonpassenger":0,"depot":0,"ticketZoneBorder":0,"onDemand":0,"activationDate":"2017-04-21"},{"stopId":1667,"stopCode":"02","stopName":"Górskiego","stopShortName":"1667","stopDesc":"Górskiego","subName":" ","date":"2017-04-24","stopLat":54.41877,"stopLon":18.56521,"zoneId":1,"zoneName":"Gdańsk","stopUrl":"","locationType":null,"parentStation":null,"stopTimezone":"","wheelchairBoarding":null,"virtual":0,"nonpassenger":0,"depot":0,"ticketZoneBorder":0,"onDemand":0,"activationDate":"2017-04-21"},{"stopId":1669,"stopCode":"02","stopName":"Nadwodna","stopShortName":"1669","stopDesc":"Nadwodna","subName":" ","date":"2017-04-24","stopLat":54.42277,"stopLon":18.564,"zoneId":1,"zoneName":"Gdańsk","stopUrl":"","locationType":null,"parentStation":null,"stopTimezone":"","wheelchairBoarding":null,"virtual":0,"nonpassenger":0,"depot":0,"ticketZoneBorder":0,"onDemand":0,"activationDate":"2017-04-21"},{"stopId":1664,"stopCode":"01","stopName":"Kamienna Grobla","stopShortName":"1664","stopDesc":"Kamienna Grobla","subName":" ","date":"2017-04-24","stopLat":54.34178,"stopLon":18.6556,"zoneId":1,"zoneName":"Gdańsk","stopUrl":"","locationType":null,"parentStation":null,"stopTimezone":"","wheelchairBoarding":null,"virtual":0,"nonpassenger":0,"depot":0,"ticketZoneBorder":0,"onDemand":0,"activationDate":"2017-04-21"},{"stopId":1666,"stopCode":"03","stopName":"Opacka","stopShortName":"1666","stopDesc":"Opacka (N/Ż)","subName":"03","date":"2017-04-24","stopLat":54.4151,"stopLon":18.56644,"zoneId":1,"zoneName":"Gdańsk","stopUrl":"","locationType":null,"parentStation":null,"stopTimezone":"","wheelchairBoarding":null,"virtual":0,"nonpassenger":0,"depot":0,"ticketZoneBorder":0,"onDemand":1,"activationDate":"2017-04-21"},{"stopId":1665,"stopCode":"04","stopName":"Opacka","stopShortName":"1665","stopDesc":"Opacka (N/Ż)","subName":"04","date":"2017-04-24","stopLat":54.41388,"stopLon":18.56595,"zoneId":1,"zoneName":"Gdańsk","stopUrl":"","locationType":null,"parentStation":null,"stopTimezone":"","wheelchairBoarding":null,"virtual":0,"nonpassenger":0,"depot":0,"ticketZoneBorder":0,"onDemand":1,"activationDate":"2017-04-21"},{"stopId":1660,"stopCode":"01","stopName":"Dworkowa","stopShortName":"1660","stopDesc":"Dworkowa","subName":" ","date":"2017-04-24","stopLat":54.34445,"stopLon":18.68132,"zoneId":1,"zoneName":"Gdańsk","stopUrl":"","locationType":null,"parentStation":null,"stopTimezone":"","wheelchairBoarding":null,"virtual":0,"nonpassenger":0,"depot":0,"ticketZoneBorder":0,"onDemand":0,"activationDate":"2017-04-21"},{"stopId":1662,"stopCode":"03","stopName":"Akademia Muzyczna","stopShortName":"1662","stopDesc":"Akademia Muzyczna","subName":"03","date":"2017-04-24","stopLat":54.34486,"stopLon":18.66457,"zoneId":1,"zoneName":"Gdańsk","stopUrl":"","locationType":null,"parentStation":null,"stopTimezone":"","wheelchairBoarding":null,"virtual":0,"nonpassenger":0,"depot":0,"ticketZoneBorder":0,"onDemand":0,"activationDate":"2017-04-21"},{"stopId":1661,"stopCode":"04","stopName":"Akademia Muzyczna","stopShortName":"1661","stopDesc":"Akademia Muzyczna","subName":"04","date":"2017-04-24","stopLat":54.34463,"stopLon":18.66529,"zoneId":1,"zoneName":"Gdańsk","stopUrl":"","locationType":null,"parentStation":null,"stopTimezone":"","wheelchairBoarding":null,"virtual":0,"nonpassenger":0,"depot":0,"ticketZoneBorder":0,"onDemand":0,"activationDate":"2017-04-21"},{"stopId":1677,"stopCode":"01","stopName":"Jaworowa","stopShortName":"1677","stopDesc":"Jaworowa","subName":"01","date":"2017-04-24","stopLat":54.33841,"stopLon":18.55972,"zoneId":1,"zoneName":"Gdańsk","stopUrl":"","locationType":null,"parentStation":null,"stopTimezone":"","wheelchairBoarding":null,"virtual":0,"nonpassenger":0,"depot":0,"ticketZoneBorder":0,"onDemand":0,"activationDate":"2017-04-21"},{"stopId":1676,"stopCode":"02","stopName":"Jaworowa","stopShortName":"1676","stopDesc":"Jaworowa","subName":"02","date":"2017-04-24","stopLat":54.33877,"stopLon":18.55969,"zoneId":1,"zoneName":"Gdańsk","stopUrl":"","locationType":null,"parentStation":null,"stopTimezone":"","wheelchairBoarding":null,"virtual":0,"nonpassenger":0,"depot":0,"ticketZoneBorder":0,"onDemand":0,"activationDate":"2017-04-21"},{"stopId":1670,"stopCode":"01","stopName":"Pólnicy","stopShortName":"1670","stopDesc":"Pólnicy (N/Ż)","subName":"01","date":"2017-04-24","stopLat":54.33956,"stopLon":18.56114,"zoneId":1,"zoneName":"Gdańsk","stopUrl":"","locationType":null,"parentStation":null,"stopTimezone":"","wheelchairBoarding":null,"virtual":0,"nonpassenger":0,"depot":0,"ticketZoneBorder":0,"onDemand":1,"activationDate":"2017-04-21"},{"stopId":1673,"stopCode":"01","stopName":"Jeziorowa","stopShortName":"1673","stopDesc":"Jeziorowa","subName":"01","date":"2017-04-24","stopLat":54.33297,"stopLon":18.55944,"zoneId":1,"zoneName":"Gdańsk","stopUrl":"","locationType":null,"parentStation":null,"stopTimezone":"","wheelchairBoarding":null,"virtual":0,"nonpassenger":0,"depot":0,"ticketZoneBorder":0,"onDemand":0,"activationDate":"2017-04-21"},{"stopId":1672,"stopCode":"02","stopName":"Jeziorowa","stopShortName":"1672","stopDesc":"Jeziorowa","subName":"02","date":"2017-04-24","stopLat":54.33457,"stopLon":18.55947,"zoneId":1,"zoneName":"Gdańsk","stopUrl":"","locationType":null,"parentStation":null,"stopTimezone":"","wheelchairBoarding":null,"virtual":0,"nonpassenger":0,"depot":0,"ticketZoneBorder":0,"onDemand":0,"activationDate":"2017-04-21"},{"stopId":1680,"stopCode":"01","stopName":"Boguckiego","stopShortName":"1680","stopDesc":"Boguckiego (N/Ż)","subName":" ","date":"2017-04-24","stopLat":54.33806,"stopLon":18.90416,"zoneId":1,"zoneName":"Gdańsk","stopUrl":"","locationType":null,"parentStation":null,"stopTimezone":"","wheelchairBoarding":null,"virtual":0,"nonpassenger":0,"depot":0,"ticketZoneBorder":0,"onDemand":1,"activationDate":"2017-04-21"},{"stopId":1689,"stopCode":"02","stopName":"Na Szańcach","stopShortName":"1689","stopDesc":"Na Szańcach","subName":" ","date":"2017-04-24","stopLat":54.34469,"stopLon":18.6731,"zoneId":1,"zoneName":"Gdańsk","stopUrl":"","locationType":null,"parentStation":null,"stopTimezone":"","wheelchairBoarding":null,"virtual":0,"nonpassenger":0,"depot":0,"ticketZoneBorder":0,"onDemand":0,"activationDate":"2017-04-21"},{"stopId":1686,"stopCode":"01","stopName":"Przywidzka","stopShortName":"1686","stopDesc":"Przywidzka","subName":"01","date":"2017-04-24","stopLat":54.32525,"stopLon":18.54933,"zoneId":1,"zoneName":"Gdańsk","stopUrl":"","locationType":null,"parentStation":null,"stopTimezone":"","wheelchairBoarding":null,"virtual":0,"nonpassenger":0,"depot":0,"ticketZoneBorder":0,"onDemand":0,"activationDate":"2017-04-21"},{"stopId":1685,"stopCode":"02","stopName":"Szadółki","stopShortName":"1685","stopDesc":"Szadółki","subName":"02","date":"2017-04-24","stopLat":54.32833,"stopLon":18.55167,"zoneId":1,"zoneName":"Gdańsk","stopUrl":"","locationType":null,"parentStation":null,"stopTimezone":"","wheelchairBoarding":null,"virtual":0,"nonpassenger":0,"depot":0,"ticketZoneBorder":0,"onDemand":0,"activationDate":"2017-04-21"},{"stopId":1688,"stopCode":"01","stopName":"Olszynka - Szkoła","stopShortName":"1688","stopDesc":"Olszynka Szkoła","subName":" ","date":"2017-04-24","stopLat":54.3418,"stopLon":18.66894,"zoneId":1,"zoneName":"Gdańsk","stopUrl":"","locationType":null,"parentStation":null,"stopTimezone":"","wheelchairBoarding":null,"virtual":0,"nonpassenger":0,"depot":0,"ticketZoneBorder":0,"onDemand":0,"activationDate":"2017-04-21"},{"stopId":1687,"stopCode":"02","stopName":"Przywidzka","stopShortName":"1687","stopDesc":"Przywidzka","subName":"02","date":"2017-04-24","stopLat":54.32434,"stopLon":18.54758,"zoneId":1,"zoneName":"Gdańsk","stopUrl":"","locationType":null,"parentStation":null,"stopTimezone":"","wheelchairBoarding":null,"virtual":0,"nonpassenger":0,"depot":0,"ticketZoneBorder":0,"onDemand":0,"activationDate":"2017-04-21"},